header:
  stamp:
    sec: 1750749982
    nanosec: 726104651
  frame_id: ''
name: []
position:
- -19.391498110128587
- 435.41048165988053
- -39.29578507974945
- 2.9654596727790548
- -0.5600732180409063
- 2.3695734624071845
velocity: []
effort: []
---
header:
  stamp:
    sec: 1750749982
    nanosec: 727714006
  frame_id: ''
name: []
position:
- -19.18749811012858
- 435.39848165988053
- -39.46378507974957
- 2.9665564914104867
- -0.5587907898603455
- 2.3666037447289967
velocity: []
effort: []
---
header:
  stamp:
    sec: 1750749982
    nanosec: 729983325
  frame_id: ''
name: []
position:
- -19.107498110128567
- 435.3854816598805
- -39.668785079749725
- 2.96286401860017
- -0.5614226501071671
- 2.3652563105088644
velocity: []
effort: []
---
header:
  stamp:
    sec: 1750749982
    nanosec: 732180749
  frame_id: ''
name: []
position:
- -18.968498110128557
- 435.3204816598805
- -39.86278507974946
- 2.9586875760842375
- -0.5643197124865829
- 2.3664032446930765
velocity: []
effort: []
---
header:
  stamp:
    sec: 1750749982
    nanosec: 734415178
  frame_id: ''
name: []
position:
- -18.855498110128558
- 435.23948165988054
- -39.90078507974947
- 2.9559793990912975
- -0.5671085595772565
- 2.365998299911998
velocity: []
effort: []
---
header:
  stamp:
    sec: 1750749982
    nanosec: 736600979
  frame_id: ''
name: []
position:
- -18.722498110128576
- 435.08548165988054
- -39.852785079749694
- 2.9546077730826354
- -0.5691439411641743
- 2.3629511956019096
velocity: []
effort: []
---
header:
  stamp:
    sec: 1750749982
    nanosec: 738918621
  frame_id: ''
name: []
position:
- -18.507498110128545
- 434.89748165988055
- -39.801785079749536
- 2.9534022317354265
- -0.5701917137521089
- 2.361847770542304
velocity: []
effort: []
---
header:
  stamp:
    sec: 1750749982
    nanosec: 740750185
  frame_id: ''
name: []
position:
- -18.33649811012858
- 434.7404816598805
- -39.76978507974961
- 2.953562009753516
- -0.5701857833043393
- 2.359899785083897
velocity: []
effort: []
---
header:
  stamp:
    sec: 1750749982
    nanosec: 742479694
  frame_id: ''
name: []
position:
- -18.251498110128573
- 434.6344816598805
- -39.77578507974947
- 2.9533187472044045
- -0.5705759795408321
- 2.3590498252935523
velocity: []
effort: []
---
header:
  stamp:
    sec: 1750749982
    nanosec: 749951542
  frame_id: ''
name: []
position:
- -18.071498110128566
- 434.4684816598805
- -39.80778507974962
- 2.954315608852209
- -0.5710177916916627
- 2.3620007024448952
velocity: []
effort: []
---
header:
  stamp:
    sec: 1750749982
    nanosec: 751750136
  frame_id: ''
name: []
position:
- -17.898498110128564
- 434.3874816598805
- -39.94578507974954
- 2.9539012248948855
- -0.5713245947591761
- 2.3671618833499326
velocity: []
effort: []
---
header:
  stamp:
    sec: 1750749982
    nanosec: 753520518
  frame_id: ''
name: []
position:
- -17.88749811012857
- 434.4394816598805
- -40.04078507974957
- 2.9513239577995742
- -0.5742907560628374
- 2.3724125674150764
velocity: []
effort: []
---
header:
  stamp:
    sec: 1750749982
    nanosec: 755262286
  frame_id: ''
name: []
position:
- -18.125498110128568
- 434.60748165988053
- -39.92578507974956
- 2.950058473073614
- -0.5758024469197363
- 2.3748406064304066
velocity: []
effort: []
---
header:
  stamp:
    sec: 1750749982
    nanosec: 757079914
  frame_id: ''
name: []
position:
- -18.297498110128565
- 434.7114816598805
- -39.786785079749436
- 2.949083912324836
- -0.5768376267029566
- 2.3756814280598677
velocity: []
effort: []
---
header:
  stamp:
    sec: 1750749982
    nanosec: 758844998
  frame_id: ''
name: []
position:
- -18.35449811012858
- 434.74848165988055
- -39.707785079749485
- 2.9478602158408553
- -0.578218162658507
- 2.376574863934589
velocity: []
effort: []
---
header:
  stamp:
    sec: 1750749982
    nanosec: 762305886
  frame_id: ''
name: []
position:
- -18.42349811012854
- 434.79448165988055
- -39.62978507974951
- 2.9469635395657865
- -0.5769184263101104
- 2.376038568165369
velocity: []
effort: []
---
header:
  stamp:
    sec: 1750749982
    nanosec: 764180158
  frame_id: ''
name: []
position:
- -18.43749811012858
- 434.82148165988053
- -39.5627850797495
- 2.946185584919776
- -0.575293746796834
- 2.3754350813801826
velocity: []
effort: []
---
header:
  stamp:
    sec: 1750749982
    nanosec: 765741187
  frame_id: ''
name: []
position:
- -18.44149811012857
- 434.8364816598805
- -39.475785079749514
- 2.9456150540343207
- -0.5740193584147775
- 2.3751050892546455
velocity: []
effort: []
---
header:
  stamp:
    sec: 1750749982
    nanosec: 767226428
  frame_id: ''
name: []
position:
- -18.398498110128564
- 434.8174816598805
- -39.41778507974975
- 2.945955522202198
- -0.5726696841018336
- 2.3735170923087314
velocity: []
effort: []
---
header:
  stamp:
    sec: 1750749982
    nanosec: 773151912
  frame_id: ''
name: []
position:
- -18.33049811012858
- 434.79248165988054
- -39.388785079749525
- 2.9468106737745634
- -0.5721229882769063
- 2.3729409301355
velocity: []
effort: []
---
header:
  stamp:
    sec: 1750749982
    nanosec: 785548327
  frame_id: ''
name: []
position:
- -18.246498110128577
- 434.75348165988055
- -39.3567850797496
- 2.947912131502727
- -0.5739186829563466
- 2.375378179532038
velocity: []
effort: []
---
header:
  stamp:
    sec: 1750749982
    nanosec: 822450567
  frame_id: ''
name: []
position:
- -18.194498110128585
- 434.7474816598805
- -39.385785079749596
- 2.948480559290579
- -0.5755383545390114
- 2.377548673476282
velocity: []
effort: []
---
header:
  stamp:
    sec: 1750749982
    nanosec: 827759870
  frame_id: ''
name: []
position:
- -18.198498110128575
- 434.7784816598805
- -39.4377850797495
- 2.9494219686873677
- -0.5759809114689489
- 2.3783146055401083
velocity: []
effort: []
---
header:
  stamp:
    sec: 1750749982
    nanosec: 830271186
  frame_id: ''
name: []
position:
- -18.206498110128557
- 434.8244816598805
- -39.49378507974954
- 2.9493188817371605
- -0.5770322941550101
- 2.379366296022231
velocity: []
effort: []
---
header:
  stamp:
    sec: 1750749982
    nanosec: 832340265
  frame_id: ''
name: []
position:
- -18.19549811012856
- 434.85248165988054
- -39.50478507974951
- 2.94837288331818
- -0.5778776261023798
- 2.380170849465953
velocity: []
effort: []
---
header:
  stamp:
    sec: 1750749982
    nanosec: 838266624
  frame_id: ''
name: []
position:
- -18.17349811012854
- 434.87448165988053
- -39.49178507974959
- 2.947336624478201
- -0.578261910973398
- 2.3804854544045635
velocity: []
effort: []
---
header:
  stamp:
    sec: 1750749982
    nanosec: 850069427
  frame_id: ''
name: []
position:
- -18.13749811012857
- 434.9044816598805
- -39.48478507974953
- 2.9463859535517556
- -0.5794104664570204
- 2.3804956259997714
velocity: []
effort: []
---
header:
  stamp:
    sec: 1750749982
    nanosec: 860589850
  frame_id: ''
name: []
position:
- -18.057498110128584
- 434.98748165988053
- -39.597785079749585
- 2.9458604498342775
- -0.5805219013159466
- 2.380549329860664
velocity: []
effort: []
---
header:
  stamp:
    sec: 1750749982
    nanosec: 872429375
  frame_id: ''
name: []
position:
- -17.996498110128577
- 435.0694816598805
- -39.7647850797495
- 2.9462701647945058
- -0.5818414025277727
- 2.3804759500051618
velocity: []
effort: []
---
header:
  stamp:
    sec: 1750749982
    nanosec: 884432944
  frame_id: ''
name: []
position:
- -17.980498110128558
- 435.14748165988055
- -39.95578507974953
- 2.947438177300686
- -0.5830612591338041
- 2.380821680280551
velocity: []
effort: []
---
header:
  stamp:
    sec: 1750749982
    nanosec: 896159753
  frame_id: ''
name: []
position:
- -17.99849811012856
- 435.24348165988056
- -40.17378507974961
- 2.948164849112525
- -0.5836893306014496
- 2.3812394103688175
velocity: []
effort: []
---
header:
  stamp:
    sec: 1750749982
    nanosec: 906511866
  frame_id: ''
name: []
position:
- -18.031498110128574
- 435.32148165988053
- -40.33278507974971
- 2.9493558346774886
- -0.5834012854158649
- 2.3814860190420273
velocity: []
effort: []
---
header:
  stamp:
    sec: 1750749982
    nanosec: 915822360
  frame_id: ''
name: []
position:
- -18.03649811012854
- 435.36148165988055
- -40.441785079749636
- 2.9502541193972016
- -0.5828888304679273
- 2.3815445250360634
velocity: []
effort: []
---
header:
  stamp:
    sec: 1750749983
    nanosec: 245668105
  frame_id: ''
name: []
position:
- -18.03449811012856
- 435.3804816598805
- -40.56778507974961
- 2.9509914301073854
- -0.5825103540216127
- 2.381408746136535
velocity: []
effort: []
---
header:
  stamp:
    sec: 1750749983
    nanosec: 247409744
  frame_id: ''
name: []
position:
- -18.02449811012857
- 435.3774816598805
- -40.67378507974961
- 2.951309087843729
- -0.5826685875557636
- 2.3811169451349894
velocity: []
effort: []
---
header:
  stamp:
    sec: 1750749983
    nanosec: 249402377
  frame_id: ''
name: []
position:
- -18.020498110128578
- 435.3754816598805
- -40.791785079749545
- 2.951290013486082
- -0.5829223342463197
- 2.381335747049413
velocity: []
effort: []
---
header:
  stamp:
    sec: 1750749983
    nanosec: 251100471
  frame_id: ''
name: []
position:
- -17.520498110128578
- 435.0124816598805
- -41.528785079749625
- 2.9577427066398174
- -0.5830017286054313
- 2.3735880405914624
velocity: []
effort: []
---
header:
  stamp:
    sec: 1750749983
    nanosec: 252907390
  frame_id: ''
name: []
position:
- -17.388498110128573
- 434.9474816598805
- -41.68778507974973
- 2.959145784533106
- -0.5818459979471047
- 2.3721285016261633
velocity: []
effort: []
---
header:
  stamp:
    sec: 1750749983
    nanosec: 254702012
  frame_id: ''
name: []
position:
- -17.31449811012856
- 434.9064816598805
- -41.78778507974964
- 2.96028593834206
- -0.5820692622624057
- 2.371507514980814
velocity: []
effort: []
---
header:
  stamp:
    sec: 1750749983
    nanosec: 256558777
  frame_id: ''
name: []
position:
- -17.236498110128558
- 434.87448165988053
- -41.870785079749496
- 2.961536314523113
- -0.5826649696775228
- 2.371364141070524
velocity: []
effort: []
---
header:
  stamp:
    sec: 1750749983
    nanosec: 258304380
  frame_id: ''
name: []
position:
- -17.130498110128563
- 434.81648165988054
- -41.941785079749636
- 2.9629501349756375
- -0.582628129716206
- 2.370282331212213
velocity: []
effort: []
---
header:
  stamp:
    sec: 1750749983
    nanosec: 260117307
  frame_id: ''
name: []
position:
- -17.134498110128582
- 434.75648165988054
- -41.90278507974942
- 2.962424167230181
- -0.5848629158198674
- 2.370222948397136
velocity: []
effort: []
---
header:
  stamp:
    sec: 1750749983
    nanosec: 262010916
  frame_id: ''
name: []
position:
- -17.085498110128576
- 434.77248165988055
- -41.93078507974967
- 2.96221985372934
- -0.5860260371071286
- 2.3711457811626238
velocity: []
effort: []
---
header:
  stamp:
    sec: 1750749983
    nanosec: 264031403
  frame_id: ''
name: []
position:
- -17.039498110128555
- 434.7314816598805
- -41.9527850797496
- 2.9632560815393885
- -0.5860300366252771
- 2.3707332491139064
velocity: []
effort: []
---
header:
  stamp:
    sec: 1750749983
    nanosec: 265903362
  frame_id: ''
name: []
position:
- -16.986498110128558
- 434.69648165988053
- -41.97978507974965
- 2.9642345004345505
- -0.5866086208945177
- 2.370104969191176
velocity: []
effort: []
---
header:
  stamp:
    sec: 1750749983
    nanosec: 267733579
  frame_id: ''
name: []
position:
- -16.946498110128566
- 434.65548165988054
- -41.99378507974954
- 2.964890457765266
- -0.586175886163282
- 2.3699637510586333
velocity: []
effort: []
---
header:
  stamp:
    sec: 1750749983
    nanosec: 269519816
  frame_id: ''
name: []
position:
- -16.835498110128576
- 434.5404816598805
- -42.04878507974938
- 2.9667434497697096
- -0.584342698486859
- 2.371701118478244
velocity: []
effort: []
---
header:
  stamp:
    sec: 1750749983
    nanosec: 271290044
  frame_id: ''
name: []
position:
- -16.813498110128556
- 434.5144816598805
- -42.03978507974959
- 2.9665582210419585
- -0.5850564708083332
- 2.3717843300586696
velocity: []
effort: []
---
header:
  stamp:
    sec: 1750749983
    nanosec: 273112446
  frame_id: ''
name: []
position:
- -16.803498110128565
- 434.49148165988055
- -42.02278507974954
- 2.9664652428726885
- -0.5849657540532325
- 2.3722322602499677
velocity: []
effort: []
---
header:
  stamp:
    sec: 1750749983
    nanosec: 276657930
  frame_id: ''
name: []
position:
- -16.797498110128565
- 434.48448165988054
- -41.98378507974955
- 2.965933428109628
- -0.5849488756964699
- 2.373239857767651
velocity: []
effort: []
---
header:
  stamp:
    sec: 1750749983
    nanosec: 278267639
  frame_id: ''
name: []
position:
- -16.79049811012856
- 434.48948165988054
- -41.95078507974942
- 2.965646055767594
- -0.5845975419824255
- 2.3745365648354215
velocity: []
effort: []
---
header:
  stamp:
    sec: 1750749983
    nanosec: 279812767
  frame_id: ''
name: []
position:
- -16.775498110128574
- 434.46548165988054
- -41.944785079749565
- 2.9655012454059584
- -0.5840360607302814
- 2.37495551578451
velocity: []
effort: []
---
header:
  stamp:
    sec: 1750749983
    nanosec: 281341947
  frame_id: ''
name: []
position:
- -16.765498110128554
- 434.43448165988053
- -41.9517850797494
- 2.9656937545619564
- -0.5838420309425153
- 2.3748410358529912
velocity: []
effort: []
---
header:
  stamp:
    sec: 1750749983
    nanosec: 282888767
  frame_id: ''
name: []
position:
- -16.757498110128545
- 434.4114816598805
- -41.96378507974957
- 2.96578410772497
- -0.584177506497037
- 2.3748546837474263
velocity: []
effort: []
---
header:
  stamp:
    sec: 1750749983
    nanosec: 284403852
  frame_id: ''
name: []
position:
- -16.740498110128577
- 434.3774816598805
- -41.97778507974947
- 2.9661068556758625
- -0.5845170811864163
- 2.374376356435821
velocity: []
effort: []
---
header:
  stamp:
    sec: 1750749983
    nanosec: 286163030
  frame_id: ''
name: []
position:
- -16.690498110128566
- 434.33548165988054
- -42.013785079749525
- 2.966244606046209
- -0.5846049633093567
- 2.3733550590762325
velocity: []
effort: []
---
header:
  stamp:
    sec: 1750749983
    nanosec: 288654661
  frame_id: ''
name: []
position:
- -16.674498110128546
- 434.3084816598805
- -42.03778507974941
- 2.966656865949448
- -0.5843983876829936
- 2.3728902331268746
velocity: []
effort: []
---
header:
  stamp:
    sec: 1750749983
    nanosec: 290241409
  frame_id: ''
name: []
position:
- -16.65149811012855
- 434.2834816598805
- -42.07878507974935
- 2.9672280493505028
- -0.5842765691643319
- 2.372583627370389
velocity: []
effort: []
---
header:
  stamp:
    sec: 1750749983
    nanosec: 295479213
  frame_id: ''
name: []
position:
- -16.64949811012857
- 434.2694816598805
- -42.10278507974947
- 2.9673964901449312
- -0.5847148124649885
- 2.3732200967041215
velocity: []
effort: []
---
header:
  stamp:
    sec: 1750749983
    nanosec: 307522828
  frame_id: ''
name: []
position:
- -16.65949811012856
- 434.2674816598805
- -42.09578507974963
- 2.9669633318946955
- -0.5857628732084597
- 2.374156465081451
velocity: []
effort: []
---
header:
  stamp:
    sec: 1750749983
    nanosec: 317164516
  frame_id: ''
name: []
position:
- -16.668498110128574
- 434.26348165988054
- -42.0927850797497
- 2.9666218519295775
- -0.5866713003871957
- 2.3750296357462695
velocity: []
effort: []
---
header:
  stamp:
    sec: 1750749983
    nanosec: 328071885
  frame_id: ''
name: []
position:
- -16.680498110128546
- 434.27048165988055
- -42.059785079749346
- 2.966532597115859
- -0.5863509240942504
- 2.375565091674483
velocity: []
effort: []
---
header:
  stamp:
    sec: 1750749983
    nanosec: 338254065
  frame_id: ''
name: []
position:
- -16.70749811012856
- 434.29448165988055
- -42.04878507974938
- 2.9665346866829725
- -0.5859409737966572
- 2.3766812790621796
velocity: []
effort: []
---
header:
  stamp:
    sec: 1750749983
    nanosec: 349200134
  frame_id: ''
name: []
position:
- -16.731498110128562
- 434.32048165988056
- -42.026785079749445
- 2.966655667978078
- -0.5851656227205168
- 2.3775724046740083
velocity: []
effort: []
---
header:
  stamp:
    sec: 1750749983
    nanosec: 362179574
  frame_id: ''
name: []
position:
- -16.724498110128586
- 434.3224816598805
- -42.00178507974958
- 2.966691915639679
- -0.5847411238903613
- 2.3776541540869096
velocity: []
effort: []
---
header:
  stamp:
    sec: 1750749983
    nanosec: 372568204
  frame_id: ''
name: []
position:
- -16.704498110128547
- 434.3054816598805
- -41.97678507974972
- 2.9667743726721225
- -0.5844777108891536
- 2.377171601816732
velocity: []
effort: []
---
header:
  stamp:
    sec: 1750749983
    nanosec: 403801570
  frame_id: ''
name: []
position:
- -16.67749811012856
- 434.28048165988054
- -41.939785079749456
- 2.966569894172802
- -0.5843873608788822
- 2.377093114214279
velocity: []
effort: []
---
header:
  stamp:
    sec: 1750749983
    nanosec: 439458637
  frame_id: ''
name: []
position:
- -16.67149811012859
- 434.2604816598805
- -41.90178507974967
- 2.9660639128803217
- -0.5847467042806651
- 2.377749164512518
velocity: []
effort: []
---
header:
  stamp:
    sec: 1750749983
    nanosec: 443379970
  frame_id: ''
name: []
position:
- -16.65349811012856
- 434.2454816598805
- -41.86678507974959
- 2.9658961554604706
- -0.5846935873910833
- 2.378797479732398
velocity: []
effort: []
---
header:
  stamp:
    sec: 1750749983
    nanosec: 448973098
  frame_id: ''
name: []
position:
- -16.634498110128554
- 434.24648165988054
- -41.8567850797496
- 2.966252386160294
- -0.583986089488042
- 2.37923782218824
velocity: []
effort: []
---
header:
  stamp:
    sec: 1750749983
    nanosec: 452956271
  frame_id: ''
name: []
position:
- -16.607498110128567
- 434.2454816598805
- -41.83878507974957
- 2.9670009870123266
- -0.5828098959841558
- 2.379353983578312
velocity: []
effort: []
---
header:
  stamp:
    sec: 1750749983
    nanosec: 456751794
  frame_id: ''
name: []
position:
- -16.52849811012856
- 434.2694816598805
- -41.72878507974967
- 2.9673171258951396
- -0.5820131586318756
- 2.379483076687787
velocity: []
effort: []
---
header:
  stamp:
    sec: 1750749983
    nanosec: 744625344
  frame_id: ''
name: []
position:
- -16.448498110128575
- 434.2794816598805
- -41.6067850797496
- 2.967580158549595
- -0.5818197603013922
- 2.37959831364361
velocity: []
effort: []
---
header:
  stamp:
    sec: 1750749983
    nanosec: 746289507
  frame_id: ''
name: []
position:
- -16.356498110128562
- 434.3084816598805
- -41.475785079749514
- 2.967717233512482
- -0.5819517290862924
- 2.3795683307485906
velocity: []
effort: []
---
header:
  stamp:
    sec: 1750749983
    nanosec: 747874705
  frame_id: ''
name: []
position:
- -16.285498110128565
- 434.3364816598805
- -41.3567850797496
- 2.967824564799514
- -0.5817698545203218
- 2.37993636440122
velocity: []
effort: []
---
header:
  stamp:
    sec: 1750749983
    nanosec: 749600213
  frame_id: ''
name: []
position:
- -15.563498110128556
- 434.42448165988054
- -40.4997850797494
- 2.9681971564468705
- -0.5804121045553279
- 2.3803326544855814
velocity: []
effort: []
---
header:
  stamp:
    sec: 1750749983
    nanosec: 751385624
  frame_id: ''
name: []
position:
- -14.819498110128556
- 434.6804816598805
- -39.926785079749536
- 2.968827377171191
- -0.5780901525843488
- 2.3805804213858077
velocity: []
effort: []
---
header:
  stamp:
    sec: 1750749983
    nanosec: 753128867
  frame_id: ''
name: []
position:
- -14.54049811012856
- 434.77348165988053
- -39.656785079749554
- 2.968304078777672
- -0.5777195324314984
- 2.3801150143440326
velocity: []
effort: []
---
header:
  stamp:
    sec: 1750749983
    nanosec: 754885856
  frame_id: ''
name: []
position:
- -14.445498110128561
- 434.81848165988055
- -39.53778507974964
- 2.9673599155944723
- -0.578609087153568
- 2.380297124130447
velocity: []
effort: []
---
header:
  stamp:
    sec: 1750749983
    nanosec: 756773401
  frame_id: ''
name: []
position:
- -14.359498110128577
- 434.8874816598805
- -39.44578507974954
- 2.966565607399695
- -0.5793110170730241
- 2.380784164420893
velocity: []
effort: []
---
header:
  stamp:
    sec: 1750749983
    nanosec: 758552448
  frame_id: ''
name: []
position:
- -14.242498110128558
- 434.9954816598805
- -39.36878507974954
- 2.9671941578489287
- -0.5778261626364025
- 2.3811319567947793
velocity: []
effort: []
---
header:
  stamp:
    sec: 1750749983
    nanosec: 760198469
  frame_id: ''
name: []
position:
- -14.16549811012856
- 435.15248165988055
- -39.32878507974958
- 2.9675874097622694
- -0.5767185899121193
- 2.3813219708423574
velocity: []
effort: []
---
header:
  stamp:
    sec: 1750749983
    nanosec: 761996025
  frame_id: ''
name: []
position:
- -14.093498110128557
- 435.3144816598805
- -39.286785079749436
- 2.9681366690544597
- -0.5755597510220921
- 2.381453328100585
velocity: []
effort: []
---
header:
  stamp:
    sec: 1750749983
    nanosec: 763733827
  frame_id: ''
name: []
position:
- -14.009498110128554
- 435.4624816598805
- -39.217785079749476
- 2.968305758694519
- -0.5747827018369188
- 2.3817046179188837
velocity: []
effort: []
---
header:
  stamp:
    sec: 1750749983
    nanosec: 765500331
  frame_id: ''
name: []
position:
- -13.897498110128588
- 435.58848165988053
- -39.11678507974959
- 2.968090018356914
- -0.5743545013578789
- 2.3819488242853066
velocity: []
effort: []
---
header:
  stamp:
    sec: 1750749983
    nanosec: 767279950
  frame_id: ''
name: []
position:
- -13.789498110128555
- 435.6994816598805
- -39.038785079749616
- 2.9674034610404902
- -0.5743772476750837
- 2.3824695548562387
velocity: []
effort: []
---
header:
  stamp:
    sec: 1750749983
    nanosec: 769016941
  frame_id: ''
name: []
position:
- -13.638498110128573
- 435.80648165988055
- -38.98078507974962
- 2.967332922868019
- -0.5742311137347711
- 2.382564776875631
velocity: []
effort: []
---
header:
  stamp:
    sec: 1750749983
    nanosec: 770809006
  frame_id: ''
name: []
position:
- -13.455498110128552
- 435.8994816598805
- -38.9227850797494
- 2.967528453412538
- -0.5739199811944036
- 2.3822355999502745
velocity: []
effort: []
---
header:
  stamp:
    sec: 1750749983
    nanosec: 772556507
  frame_id: ''
name: []
position:
- -13.259498110128554
- 435.96548165988054
- -38.832785079749485
- 2.9673121215738405
- -0.5739657242237826
- 2.3817954256447367
velocity: []
effort: []
---
header:
  stamp:
    sec: 1750749983
    nanosec: 774291178
  frame_id: ''
name: []
position:
- -13.089498110128567
- 436.02248165988055
- -38.72778507974947
- 2.9666340918743312
- -0.5744653645642025
- 2.3816451555369778
velocity: []
effort: []
---
header:
  stamp:
    sec: 1750749983
    nanosec: 782536588
  frame_id: ''
name: []
position:
- -12.942498110128575
- 436.0964816598805
- -38.61778507974957
- 2.966117695157466
- -0.5749491411515445
- 2.3815397059507846
velocity: []
effort: []
---
header:
  stamp:
    sec: 1750749983
    nanosec: 793547445
  frame_id: ''
name: []
position:
- -12.79049811012856
- 436.1904816598805
- -38.54078507974957
- 2.965875680916915
- -0.5749510831457312
- 2.3815534560667833
velocity: []
effort: []
---
header:
  stamp:
    sec: 1750749983
    nanosec: 806972539
  frame_id: ''
name: []
position:
- -12.612498110128563
- 436.2934816598805
- -38.4677850797497
- 2.9660325504086416
- -0.5734758412813693
- 2.381402943894038
velocity: []
effort: []
---
header:
  stamp:
    sec: 1750749983
    nanosec: 817753257
  frame_id: ''
name: []
position:
- -12.416498110128565
- 436.3844816598805
- -38.38778507974955
- 2.965884568488356
- -0.5724357670261757
- 2.381342941698672
velocity: []
effort: []
---
header:
  stamp:
    sec: 1750749983
    nanosec: 827419325
  frame_id: ''
name: []
position:
- -12.210498110128547
- 436.4784816598805
- -38.29578507974968
- 2.9657210530573623
- -0.5720300638814599
- 2.3813262069958734
velocity: []
effort: []
---
header:
  stamp:
    sec: 1750749983
    nanosec: 839080165
  frame_id: ''
name: []
position:
- -12.003498110128582
- 436.5744816598805
- -38.18878507974948
- 2.965280306512687
- -0.5723007955556659
- 2.3817388825657497
velocity: []
effort: []
---
header:
  stamp:
    sec: 1750749983
    nanosec: 852648308
  frame_id: ''
name: []
position:
- -11.795498110128555
- 436.6754816598805
- -38.09378507974945
- 2.9647603261687543
- -0.5729220189804008
- 2.3822966239047956
velocity: []
effort: []
---
header:
  stamp:
    sec: 1750749983
    nanosec: 862037820
  frame_id: ''
name: []
position:
- -11.56449811012859
- 436.7864816598805
- -38.01278507974955
- 2.96461675760773
- -0.5724235325141421
- 2.3825515142651694
velocity: []
effort: []
---
header:
  stamp:
    sec: 1750749983
    nanosec: 873804040
  frame_id: ''
name: []
position:
- -11.326498110128561
- 436.9034816598805
- -37.941785079749636
- 2.964628603750323
- -0.5714953203833046
- 2.3825577735008627
velocity: []
effort: []
---
header:
  stamp:
    sec: 1750749983
    nanosec: 885468857
  frame_id: ''
name: []
position:
- -11.090498110128571
- 437.02548165988054
- -37.857785079749576
- 2.9646682280053054
- -0.5706281731595186
- 2.3825932856586083
velocity: []
effort: []
---
header:
  stamp:
    sec: 1750749983
    nanosec: 895820897
  frame_id: ''
name: []
position:
- -10.831498110128557
- 437.1464816598805
- -37.74978507974963
- 2.9647288926733264
- -0.5698529815358608
- 2.3828061940382383
velocity: []
effort: []
---
header:
  stamp:
    sec: 1750749983
    nanosec: 906933022
  frame_id: ''
name: []
position:
- -10.575498110128557
- 437.2384816598805
- -37.613785079749434
- 2.964176246393167
- -0.5695743315529123
- 2.3829291542119324
velocity: []
effort: []
---
header:
  stamp:
    sec: 1750749983
    nanosec: 916162080
  frame_id: ''
name: []
position:
- -10.34449811012859
- 437.3194816598805
- -37.482785079749576
- 2.9637167813966547
- -0.5696991545199486
- 2.3828455941766533
velocity: []
effort: []
---
header:
  stamp:
    sec: 1750749983
    nanosec: 927917588
  frame_id: ''
name: []
position:
- -10.097498110128548
- 437.4184816598805
- -37.36678507974959
- 2.9635911895529277
- -0.5695556208985895
- 2.382816060439088
velocity: []
effort: []
---
header:
  stamp:
    sec: 1750749983
    nanosec: 939834293
  frame_id: ''
name: []
position:
- -9.850498110128562
- 437.52548165988054
- -37.245785079749496
- 2.9635646328155016
- -0.5681058810604849
- 2.3830036835662844
velocity: []
effort: []
---
header:
  stamp:
    sec: 1750749984
    nanosec: 268591097
  frame_id: ''
name: []
position:
- -9.610498110128553
- 437.6274816598805
- -37.10178507974949
- 2.963188155807804
- -0.5665343191336982
- 2.38322617985026
velocity: []
effort: []
---
header:
  stamp:
    sec: 1750749984
    nanosec: 270248073
  frame_id: ''
name: []
position:
- -9.362498110128563
- 437.7234816598805
- -36.94078507974966
- 2.9627916190017274
- -0.565502370434295
- 2.3836544267169666
velocity: []
effort: []
---
header:
  stamp:
    sec: 1750749984
    nanosec: 272061458
  frame_id: ''
name: []
position:
- -9.108498110128572
- 437.79948165988054
- -36.78778507974941
- 2.9624819915067064
- -0.5654528642166772
- 2.383771915475604
velocity: []
effort: []
---
header:
  stamp:
    sec: 1750749984
    nanosec: 273786567
  frame_id: ''
name: []
position:
- -7.7524981101285775
- 438.1564816598805
- -36.04778507974963
- 2.9603900248446635
- -0.5651413754646886
- 2.3830731257386715
velocity: []
effort: []
---
header:
  stamp:
    sec: 1750749984
    nanosec: 275624859
  frame_id: ''
name: []
position:
- -6.553498110128565
- 438.8654816598805
- -35.232785079749576
- 2.9578479330096994
- -0.5622539983724941
- 2.386066692841873
velocity: []
effort: []
---
header:
  stamp:
    sec: 1750749984
    nanosec: 277433128
  frame_id: ''
name: []
position:
- -5.337498110128557
- 439.37348165988055
- -34.28978507974959
- 2.9549758984949945
- -0.5610860689352046
- 2.3872876588034058
velocity: []
effort: []
---
header:
  stamp:
    sec: 1750749984
    nanosec: 279212352
  frame_id: ''
name: []
position:
- -4.662498110128546
- 439.63148165988054
- -33.7937850797495
- 2.9536373657770416
- -0.5593264136361458
- 2.3883279290074184
velocity: []
effort: []
---
header:
  stamp:
    sec: 1750749984
    nanosec: 280981597
  frame_id: ''
name: []
position:
- -4.440498110128566
- 439.7144816598805
- -33.66278507974941
- 2.9532568191575788
- -0.5585396843812482
- 2.388700556512272
velocity: []
effort: []
---
header:
  stamp:
    sec: 1750749984
    nanosec: 282780961
  frame_id: ''
name: []
position:
- -4.145498110128578
- 439.8004816598805
- -33.510785079749596
- 2.9526379605101454
- -0.5573439603426737
- 2.388974041726377
velocity: []
effort: []
---
header:
  stamp:
    sec: 1750749984
    nanosec: 284562003
  frame_id: ''
name: []
position:
- -3.874498110128563
- 439.87348165988055
- -33.40778507974953
- 2.9521831332240906
- -0.5568258219796296
- 2.3892939559884456
velocity: []
effort: []
---
header:
  stamp:
    sec: 1750749984
    nanosec: 286363330
  frame_id: ''
name: []
position:
- -3.6094981101285484
- 439.95348165988054
- -33.335785079749414
- 2.9519883449768916
- -0.5568077096342778
- 2.3895494633830836
velocity: []
effort: []
---
header:
  stamp:
    sec: 1750749984
    nanosec: 288144803
  frame_id: ''
name: []
position:
- -3.3504981101285907
- 440.0434816598805
- -33.28478507974948
- 2.951989970798513
- -0.556969721285481
- 2.3899780657362157
velocity: []
effort: []
---
header:
  stamp:
    sec: 1750749984
    nanosec: 289915909
  frame_id: ''
name: []
position:
- -3.085498110128576
- 440.1424816598805
- -33.247785079749676
- 2.9520438423115385
- -0.5566094214077333
- 2.390322553338507
velocity: []
effort: []
---
header:
  stamp:
    sec: 1750749984
    nanosec: 291716418
  frame_id: ''
name: []
position:
- -2.7844981101285597
- 440.2234816598805
- -33.2027850797496
- 2.9523636391122525
- -0.5558735218875615
- 2.390406065704449
velocity: []
effort: []
---
header:
  stamp:
    sec: 1750749984
    nanosec: 293525996
  frame_id: ''
name: []
position:
- -2.464498110128538
- 440.31548165988056
- -33.13078507974949
- 2.952731503273741
- -0.5554391634564166
- 2.3902500358774894
velocity: []
effort: []
---
header:
  stamp:
    sec: 1750749984
    nanosec: 295293711
  frame_id: ''
name: []
position:
- -2.1754981101285793
- 440.3964816598805
- -33.03078507974958
- 2.9528118855914016
- -0.5552116004686329
- 2.390288685105274
velocity: []
effort: []
---
header:
  stamp:
    sec: 1750749984
    nanosec: 297122721
  frame_id: ''
name: []
position:
- -1.8804981101285634
- 440.46748165988055
- -32.90978507974948
- 2.9529028718068715
- -0.5549530937871898
- 2.390384873755847
velocity: []
effort: []
---
header:
  stamp:
    sec: 1750749984
    nanosec: 298885730
  frame_id: ''
name: []
position:
- -1.618498110128563
- 440.53048165988054
- -32.74478507974952
- 2.9523992270327177
- -0.5546526120930715
- 2.3907466721967623
velocity: []
effort: []
---
header:
  stamp:
    sec: 1750749984
    nanosec: 306422504
  frame_id: ''
name: []
position:
- -1.3624981101285627
- 440.59248165988055
- -32.56878507974959
- 2.951625037315563
- -0.5546045548272298
- 2.391595833376254
velocity: []
effort: []
---
header:
  stamp:
    sec: 1750749984
    nanosec: 315882484
  frame_id: ''
name: []
position:
- -1.104498110128553
- 440.63348165988054
- -32.38678507974957
- 2.9512687070530426
- -0.5543083815015177
- 2.391587498628404
velocity: []
effort: []
---
header:
  stamp:
    sec: 1750749984
    nanosec: 356592130
  frame_id: ''
name: []
position:
- -0.7724981101285593
- 440.6854816598805
- -32.19678507974952
- 2.9512511213712425
- -0.5538517476417721
- 2.3910944374709167
velocity: []
effort: []
---
header:
  stamp:
    sec: 1750749984
    nanosec: 365251664
  frame_id: ''
name: []
position:
- -0.43049811012857475
- 440.7384816598805
- -32.023785079749516
- 2.951040310472421
- -0.5534142072221113
- 2.3906598731286595
velocity: []
effort: []
---
header:
  stamp:
    sec: 1750749984
    nanosec: 370106148
  frame_id: ''
name: []
position:
- -0.1404981101285543
- 440.79648165988056
- -31.852785079749694
- 2.9506154321273868
- -0.5534294477148245
- 2.3905340818255874
velocity: []
effort: []
---
header:
  stamp:
    sec: 1750749984
    nanosec: 373075834
  frame_id: ''
name: []
position:
- 0.11050188987145049
- 440.85448165988055
- -31.69378507974959
- 2.9498888005580373
- -0.553508636907553
- 2.3907809485654266
velocity: []
effort: []
---
header:
  stamp:
    sec: 1750749984
    nanosec: 376160164
  frame_id: ''
name: []
position:
- 0.3225018898714396
- 440.9084816598805
- -31.55378507974949
- 2.9492253697350517
- -0.5535466441024566
- 2.39093267646581
velocity: []
effort: []
---
header:
  stamp:
    sec: 1750749984
    nanosec: 384023047
  frame_id: ''
name: []
position:
- 0.5185018898714375
- 440.97248165988054
- -31.457785079749485
- 2.948744678640604
- -0.5532675313001907
- 2.391227872704652
velocity: []
effort: []
---
header:
  stamp:
    sec: 1750749984
    nanosec: 395112555
  frame_id: ''
name: []
position:
- 0.7745018898714378
- 441.06648165988054
- -31.382785079749667
- 2.9484385587779323
- -0.5526258493525829
- 2.3916903892713015
velocity: []
effort: []
---
header:
  stamp:
    sec: 1750749984
    nanosec: 406292144
  frame_id: ''
name: []
position:
- 1.0265018898714473
- 441.1564816598805
- -31.34678507974938
- 2.9485086768076334
- -0.551746310319833
- 2.3920637161849925
velocity: []
effort: []
---
header:
  stamp:
    sec: 1750749984
    nanosec: 415882727
  frame_id: ''
name: []
position:
- 1.280501889871438
- 441.22448165988055
- -31.32078507974954
- 2.948476393877554
- -0.5513217430729378
- 2.3924472369298027
velocity: []
effort: []
---
header:
  stamp:
    sec: 1750749984
    nanosec: 427094149
  frame_id: ''
name: []
position:
- 1.5255018898714425
- 441.27348165988053
- -31.286785079749436
- 2.9482276833023726
- -0.5514083269873464
- 2.3925973696451712
velocity: []
effort: []
---
header:
  stamp:
    sec: 1750749984
    nanosec: 440274734
  frame_id: ''
name: []
position:
- 1.7515018898714416
- 441.31348165988055
- -31.25178507974958
- 2.9476652146999816
- -0.551954869369133
- 2.3928932322088925
velocity: []
effort: []
---
header:
  stamp:
    sec: 1750749984
    nanosec: 450781406
  frame_id: ''
name: []
position:
- 1.9885018898714364
- 441.3674816598805
- -31.250785079749605
- 2.947143764342072
- -0.5522355856391055
- 2.393286683549724
velocity: []
effort: []
---
header:
  stamp:
    sec: 1750749984
    nanosec: 460519699
  frame_id: ''
name: []
position:
- 2.3175018898714157
- 441.45848165988053
- -31.3417850797495
- 2.946531407885782
- -0.5523682650897412
- 2.394039036933425
velocity: []
effort: []
---
header:
  stamp:
    sec: 1750749984
    nanosec: 748102937
  frame_id: ''
name: []
position:
- 2.6405018898714516
- 441.5434816598805
- -31.526785079749445
- 2.946437335936466
- -0.5525703683300438
- 2.3943971491306066
velocity: []
effort: []
---
header:
  stamp:
    sec: 1750749984
    nanosec: 749805523
  frame_id: ''
name: []
position:
- 2.95950188987144
- 441.6254816598805
- -31.795785079749677
- 2.9467227460861127
- -0.5527984611683514
- 2.394432386129566
velocity: []
effort: []
---
header:
  stamp:
    sec: 1750749984
    nanosec: 752897222
  frame_id: ''
name: []
position:
- 3.478501889871417
- 441.76348165988054
- -32.363785079749434
- 2.9481321157632485
- -0.5531899910161036
- 2.3935574446834553
velocity: []
effort: []
---
header:
  stamp:
    sec: 1750749984
    nanosec: 758699031
  frame_id: ''
name: []
position:
- 4.614501889871413
- 442.20048165988055
- -33.78578507974946
- 2.9533080384303525
- -0.556147964980207
- 2.3907465118964946
velocity: []
effort: []
---
header:
  stamp:
    sec: 1750749984
    nanosec: 760327963
  frame_id: ''
name: []
position:
- 5.477501889871412
- 443.1254816598805
- -34.217785079749476
- 2.9555014955667875
- -0.5574061047854335
- 2.3906693830219767
velocity: []
effort: []
---
header:
  stamp:
    sec: 1750749984
    nanosec: 761926280
  frame_id: ''
name: []
position:
- 5.690501889871435
- 443.3074816598805
- -34.25578507974949
- 2.9550420103821975
- -0.5578519365068035
- 2.391036313323989
velocity: []
effort: []
---
header:
  stamp:
    sec: 1750749984
    nanosec: 763490292
  frame_id: ''
name: []
position:
- 5.897501889871428
- 443.4924816598805
- -34.32178507974952
- 2.9546297802646646
- -0.5583559925730655
- 2.391478155962577
velocity: []
effort: []
---
header:
  stamp:
    sec: 1750749984
    nanosec: 765171214
  frame_id: ''
name: []
position:
- 6.111501889871455
- 443.7024816598805
- -34.413785079749616
- 2.9547683476228706
- -0.5584778008142453
- 2.391657600209178
velocity: []
effort: []
---
header:
  stamp:
    sec: 1750749984
    nanosec: 766758837
  frame_id: ''
name: []
position:
- 6.325501889871454
- 443.9084816598805
- -34.513785079749525
- 2.955248759774261
- -0.5585400668640397
- 2.3914962220253195
velocity: []
effort: []
---
header:
  stamp:
    sec: 1750749984
    nanosec: 768351959
  frame_id: ''
name: []
position:
- 6.522501889871457
- 444.13348165988054
- -34.58178507974951
- 2.955363761875615
- -0.5584169501300551
- 2.3915563084239158
velocity: []
effort: []
---
header:
  stamp:
    sec: 1750749984
    nanosec: 769929175
  frame_id: ''
name: []
position:
- 6.71150188987145
- 444.3824816598805
- -34.63078507974949
- 2.9554303259638255
- -0.5581780582916513
- 2.3920206299007445
velocity: []
effort: []
---
header:
  stamp:
    sec: 1750749984
    nanosec: 771598196
  frame_id: ''
name: []
position:
- 6.95350188987144
- 444.6564816598805
- -34.68978507974968
- 2.955601804226012
- -0.5581180671475396
- 2.3924926235162256
velocity: []
effort: []
---
header:
  stamp:
    sec: 1750749984
    nanosec: 773339918
  frame_id: ''
name: []
position:
- 7.179501889871439
- 444.9114816598805
- -34.719785079749656
- 2.955800938600785
- -0.5585779064652745
- 2.3928232740324105
velocity: []
effort: []
---
header:
  stamp:
    sec: 1750749984
    nanosec: 775097985
  frame_id: ''
name: []
position:
- 7.406501889871443
- 445.16448165988055
- -34.72878507974944
- 2.9558455739559686
- -0.5592045432357438
- 2.393060828910866
velocity: []
effort: []
---
header:
  stamp:
    sec: 1750749984
    nanosec: 776940767
  frame_id: ''
name: []
position:
- 7.6225018898714225
- 445.4274816598805
- -34.723785079749334
- 2.955668202568099
- -0.5594405482954825
- 2.393318311779416
velocity: []
effort: []
---
header:
  stamp:
    sec: 1750749984
    nanosec: 778724417
  frame_id: ''
name: []
position:
- 7.823501889871444
- 445.7014816598805
- -34.70078507974965
- 2.955734785307629
- -0.559114182361816
- 2.3935571609914406
velocity: []
effort: []
---
header:
  stamp:
    sec: 1750749984
    nanosec: 784782775
  frame_id: ''
name: []
position:
- 7.997501889871451
- 445.9864816598805
- -34.66778507974952
- 2.9559056328790896
- -0.5585265828339083
- 2.3941772146907074
velocity: []
effort: []
---
header:
  stamp:
    sec: 1750749984
    nanosec: 796186527
  frame_id: ''
name: []
position:
- 8.159501889871429
- 446.2624816598805
- -34.65978507974971
- 2.95604329749699
- -0.5578375865525331
- 2.3947107391154923
velocity: []
effort: []
---
header:
  stamp:
    sec: 1750749984
    nanosec: 806269802
  frame_id: ''
name: []
position:
- 8.29650188987143
- 446.5384816598805
- -34.64678507974956
- 2.9565482389702686
- -0.5571049236797592
- 2.3950960039874407
velocity: []
effort: []
---
header:
  stamp:
    sec: 1750749984
    nanosec: 817433180
  frame_id: ''
name: []
position:
- 8.452501889871435
- 446.77348165988053
- -34.60178507974949
- 2.9566451650589376
- -0.5560987237832904
- 2.396064667650521
velocity: []
effort: []
---
header:
  stamp:
    sec: 1750749984
    nanosec: 828361223
  frame_id: ''
name: []
position:
- 8.622501889871423
- 446.97548165988053
- -34.53578507974969
- 2.9562639089842806
- -0.5554748654510804
- 2.3970018101133173
velocity: []
effort: []
---
header:
  stamp:
    sec: 1750749984
    nanosec: 841349139
  frame_id: ''
name: []
position:
- 8.805501889871415
- 447.1414816598805
- -34.457785079749485
- 2.9556127386627615
- -0.55528493703986
- 2.397887473591547
velocity: []
effort: []
---
header:
  stamp:
    sec: 1750749984
    nanosec: 853334574
  frame_id: ''
name: []
position:
- 8.990501889871446
- 447.2954816598805
- -34.406785079749554
- 2.9548172437940265
- -0.5555096145745939
- 2.398411150614797
velocity: []
effort: []
---
header:
  stamp:
    sec: 1750749984
    nanosec: 860782892
  frame_id: ''
name: []
position:
- 9.17550188987142
- 447.4544816598805
- -34.42078507974945
- 2.9545151065916877
- -0.5558409151928987
- 2.398495187219775
velocity: []
effort: []
---
header:
  stamp:
    sec: 1750749984
    nanosec: 871473106
  frame_id: ''
name: []
position:
- 9.358501889871441
- 447.6084816598805
- -34.485785079749505
- 2.954362160606491
- -0.5558598443281437
- 2.3983596813482415
velocity: []
effort: []
---
header:
  stamp:
    sec: 1750749984
    nanosec: 887619320
  frame_id: ''
name: []
position:
- 9.481501889871431
- 447.78248165988055
- -34.594785079749656
- 2.954417650204335
- -0.5559082878098389
- 2.3980169419183746
velocity: []
effort: []
---
header:
  stamp:
    sec: 1750749984
    nanosec: 894428717
  frame_id: ''
name: []
position:
- 9.601501889871436
- 447.9524816598805
- -34.73078507974962
- 2.9547328587234647
- -0.556079231557707
- 2.397470096980471
velocity: []
effort: []
---
header:
  stamp:
    sec: 1750749984
    nanosec: 914416132
  frame_id: ''
name: []
position:
- 9.648501889871433
- 448.1424816598805
- -34.86178507974971
- 2.9550765716260003
- -0.5563083235581618
- 2.3970482294485653
velocity: []
effort: []
---
header:
  stamp:
    sec: 1750749984
    nanosec: 918668592
  frame_id: ''
name: []
position:
- 9.674501889871443
- 448.3654816598805
- -34.995785079749496
- 2.955103617859078
- -0.5567324395578159
- 2.3968614020349035
velocity: []
effort: []
---
header:
  stamp:
    sec: 1750749984
    nanosec: 927560403
  frame_id: ''
name: []
position:
- 9.654501889871433
- 448.5794816598805
- -35.1547850797496
- 2.9551033285627133
- -0.5567078383866266
- 2.3968460951025365
velocity: []
effort: []
---
header:
  stamp:
    sec: 1750749984
    nanosec: 939823855
  frame_id: ''
name: []
position:
- 9.589501889871435
- 448.7834816598805
- -35.33078507974953
- 2.955374828514418
- -0.5563497305344587
- 2.397001600776129
velocity: []
effort: []
---
header:
  stamp:
    sec: 1750749985
    nanosec: 215595875
  frame_id: ''
name: []
position:
- 9.512501889871437
- 448.9734816598805
- -35.5297850797496
- 2.9553943555053745
- -0.5561932767786362
- 2.397301321723167
velocity: []
effort: []
---
header:
  stamp:
    sec: 1750749985
    nanosec: 217316052
  frame_id: ''
name: []
position:
- 9.434501889871434
- 449.1534816598805
- -35.781785079749554
- 2.955595311826994
- -0.5563184287976852
- 2.3974213598925624
velocity: []
effort: []
---
header:
  stamp:
    sec: 1750749985
    nanosec: 219080880
  frame_id: ''
name: []
position:
- 9.364501889871413
- 449.29248165988054
- -36.087785079749594
- 2.9564243331629747
- -0.5565859552686325
- 2.3968524716918607
velocity: []
effort: []
---
header:
  stamp:
    sec: 1750749985
    nanosec: 220933032
  frame_id: ''
name: []
position:
- 9.30850188987143
- 449.39748165988055
- -36.40878507974951
- 2.9578876362619315
- -0.5565324161157876
- 2.395759447305023
velocity: []
effort: []
---
header:
  stamp:
    sec: 1750749985
    nanosec: 222728734
  frame_id: ''
name: []
position:
- 9.142501889871433
- 449.74948165988053
- -38.2647850797495
- 2.9659083252160303
- -0.5561630095586554
- 2.391948672725005
velocity: []
effort: []
---
header:
  stamp:
    sec: 1750749985
    nanosec: 224487290
  frame_id: ''
name: []
position:
- 9.625501889871437
- 449.3274816598805
- -38.77278507974954
- 2.9673572760257274
- -0.5557919464543768
- 2.3900833830921915
velocity: []
effort: []
---
header:
  stamp:
    sec: 1750749985
    nanosec: 226306774
  frame_id: ''
name: []
position:
- 9.831501889871426
- 449.1594816598805
- -38.96178507974962
- 2.9677838149228113
- -0.5562007261619921
- 2.3889321251732984
velocity: []
effort: []
---
header:
  stamp:
    sec: 1750749985
    nanosec: 228098057
  frame_id: ''
name: []
position:
- 10.032501889871419
- 449.0074816598805
- -39.16078507974946
- 2.9681479838658404
- -0.5563165671701651
- 2.3877647349153115
velocity: []
effort: []
---
header:
  stamp:
    sec: 1750749985
    nanosec: 229893156
  frame_id: ''
name: []
position:
- 10.189501889871458
- 448.89548165988055
- -39.35878507974955
- 2.969028301348545
- -0.5562970695181253
- 2.386332005894582
velocity: []
effort: []
---
header:
  stamp:
    sec: 1750749985
    nanosec: 231682425
  frame_id: ''
name: []
position:
- 10.33250188987143
- 448.8054816598805
- -39.55678507974942
- 2.9698052903716614
- -0.5562869574006668
- 2.385294383295266
velocity: []
effort: []
---
header:
  stamp:
    sec: 1750749985
    nanosec: 233466428
  frame_id: ''
name: []
position:
- 10.43550188987144
- 448.7474816598805
- -39.706785079749736
- 2.970600677809286
- -0.5559808321291948
- 2.3843686557307944
velocity: []
effort: []
---
header:
  stamp:
    sec: 1750749985
    nanosec: 235203782
  frame_id: ''
name: []
position:
- 10.499501889871432
- 448.7064816598805
- -39.8127850797495
- 2.9711949465123624
- -0.5555370028110598
- 2.3834531978772864
velocity: []
effort: []
---
header:
  stamp:
    sec: 1750749985
    nanosec: 236985750
  frame_id: ''
name: []
position:
- 10.555501889871415
- 448.6704816598805
- -39.92778507974951
- 2.9719445448028536
- -0.5551923272745558
- 2.3825565470475536
velocity: []
effort: []
---
header:
  stamp:
    sec: 1750749985
    nanosec: 238813730
  frame_id: ''
name: []
position:
- 10.58850188987143
- 448.6634816598805
- -40.041785079749545
- 2.9725091187667556
- -0.5548379913232886
- 2.382345370247568
velocity: []
effort: []
---
header:
  stamp:
    sec: 1750749985
    nanosec: 240573351
  frame_id: ''
name: []
position:
- 10.622501889871423
- 448.6584816598805
- -40.171785079749654
- 2.9728687127442046
- -0.5544188594369306
- 2.382383461908154
velocity: []
effort: []
---
header:
  stamp:
    sec: 1750749985
    nanosec: 242386277
  frame_id: ''
name: []
position:
- 10.665501889871429
- 448.65548165988054
- -40.30578507974967
- 2.973565858149279
- -0.5542283724756716
- 2.3819970129912407
velocity: []
effort: []
---
header:
  stamp:
    sec: 1750749985
    nanosec: 244168463
  frame_id: ''
name: []
position:
- 10.69550188987143
- 448.6464816598805
- -40.39978507974949
- 2.974420630803575
- -0.5545201352010971
- 2.3813069630399744
velocity: []
effort: []
---
header:
  stamp:
    sec: 1750749985
    nanosec: 282142327
  frame_id: ''
name: []
position:
- 10.708501889871435
- 448.6394816598805
- -40.439785079749456
- 2.9753771365564754
- -0.5546978550286146
- 2.380718408977007
velocity: []
effort: []
---
header:
  stamp:
    sec: 1750749985
    nanosec: 292907279
  frame_id: ''
name: []
position:
- 10.71350188987143
- 448.6514816598805
- -40.47778507974947
- 2.9761701941726577
- -0.5548003961497483
- 2.3802768525063773
velocity: []
effort: []
---
header:
  stamp:
    sec: 1750749985
    nanosec: 294736190
  frame_id: ''
name: []
position:
- 10.71750188987145
- 448.6644816598805
- -40.50278507974956
- 2.9765840006333373
- -0.5542022747545665
- 2.380411372264675
velocity: []
effort: []
---
header:
  stamp:
    sec: 1750749985
    nanosec: 296539530
  frame_id: ''
name: []
position:
- 10.710501889871445
- 448.69148165988054
- -40.51178507974957
- 2.977009331354557
- -0.5534245281071695
- 2.380715770839453
velocity: []
effort: []
---
header:
  stamp:
    sec: 1750749985
    nanosec: 300342614
  frame_id: ''
name: []
position:
- 10.71550188987144
- 448.69848165988054
- -40.51178507974957
- 2.9774164414904627
- -0.5526129419943311
- 2.3807651688902354
velocity: []
effort: []
---
header:
  stamp:
    sec: 1750749985
    nanosec: 304955470
  frame_id: ''
name: []
position:
- 10.718501889871455
- 448.7014816598805
- -40.49178507974936
- 2.9775973879460595
- -0.5523234172908771
- 2.380732505675045
velocity: []
effort: []
---
header:
  stamp:
    sec: 1750749985
    nanosec: 316539813
  frame_id: ''
name: []
position:
- 10.775501889871414
- 448.6654816598805
- -40.572785079749494
- 2.9774201505196967
- -0.5528047889886836
- 2.3810388718286575
velocity: []
effort: []
---
header:
  stamp:
    sec: 1750749985
    nanosec: 328256062
  frame_id: ''
name: []
position:
- 10.861501889871427
- 448.60448165988055
- -40.64478507974961
- 2.978702225175343
- -0.55129963248766
- 2.3802185804986427
velocity: []
effort: []
---
header:
  stamp:
    sec: 1750749985
    nanosec: 340474068
  frame_id: ''
name: []
position:
- 10.962501889871454
- 448.52748165988055
- -40.75778507974944
- 2.979803613006925
- -0.5495959508085471
- 2.379349374360831
velocity: []
effort: []
---
header:
  stamp:
    sec: 1750749985
    nanosec: 351392290
  frame_id: ''
name: []
position:
- 11.08850188987143
- 448.4574816598805
- -40.92078507974945
- 2.9800386113641553
- -0.5484771918850964
- 2.378626857488765
velocity: []
effort: []
---
header:
  stamp:
    sec: 1750749985
    nanosec: 365586460
  frame_id: ''
name: []
position:
- 11.19350188987142
- 448.3774816598805
- -41.08478507974944
- 2.9807344232857695
- -0.5474485898809953
- 2.37826773200848
velocity: []
effort: []
---
header:
  stamp:
    sec: 1750749985
    nanosec: 373581904
  frame_id: ''
name: []
position:
- 11.298501889871439
- 448.30148165988055
- -41.25478507974951
- 2.981301144106801
- -0.5464402186789619
- 2.3778620442907985
velocity: []
effort: []
---
header:
  stamp:
    sec: 1750749985
    nanosec: 384232578
  frame_id: ''
name: []
position:
- 11.395501889871419
- 448.21348165988053
- -41.40878507974951
- 2.9819063996991297
- -0.5458907260989361
- 2.3774688324840674
velocity: []
effort: []
---
header:
  stamp:
    sec: 1750749985
    nanosec: 404914605
  frame_id: ''
name: []
position:
- 11.523501889871461
- 448.1374816598805
- -41.58578507974964
- 2.982421667543504
- -0.5454366822775145
- 2.377126834629195
velocity: []
effort: []
---
header:
  stamp:
    sec: 1750749985
    nanosec: 410910152
  frame_id: ''
name: []
position:
- 11.667501889871438
- 448.0694816598805
- -41.768785079749634
- 2.9827310597243466
- -0.5453493203233044
- 2.377029174815239
velocity: []
effort: []
---
header:
  stamp:
    sec: 1750749985
    nanosec: 687701469
  frame_id: ''
name: []
position:
- 11.809501889871434
- 448.00648165988054
- -41.96478507974955
- 2.983226583649475
- -0.5454539912397305
- 2.376297724150366
velocity: []
effort: []
---
header:
  stamp:
    sec: 1750749985
    nanosec: 690245152
  frame_id: ''
name: []
position:
- 11.939501889871458
- 447.9594816598805
- -42.156785079749554
- 2.9839570691223396
- -0.5457482110926966
- 2.375358513752557
velocity: []
effort: []
---
header:
  stamp:
    sec: 1750749985
    nanosec: 691822520
  frame_id: ''
name: []
position:
- 12.600501889871431
- 448.0584816598805
- -42.97078507974963
- 2.9892958594249697
- -0.541959659383698
- 2.37373967469013
velocity: []
effort: []
---
header:
  stamp:
    sec: 1750749985
    nanosec: 693413166
  frame_id: ''
name: []
position:
- 12.809501889871434
- 448.0554816598805
- -43.04578507974968
- 2.9898816998392514
- -0.5415216979706674
- 2.3733147127572125
velocity: []
effort: []
---
header:
  stamp:
    sec: 1750749985
    nanosec: 694972144
  frame_id: ''
name: []
position:
- 13.045501889871453
- 448.0414816598805
- -43.08178507974951
- 2.9904366403029337
- -0.5412184347428848
- 2.3728874095644863
velocity: []
effort: []
---
header:
  stamp:
    sec: 1750749985
    nanosec: 696543037
  frame_id: ''
name: []
position:
- 13.301501889871425
- 448.0394816598805
- -43.06678507974941
- 2.9908054717541686
- -0.5410056072737472
- 2.3725398195335496
velocity: []
effort: []
---
header:
  stamp:
    sec: 1750749985
    nanosec: 698347522
  frame_id: ''
name: []
position:
- 13.551501889871425
- 448.0404816598805
- -43.00878507974964
- 2.9908613625893774
- -0.5394140031556567
- 2.3722722521108897
velocity: []
effort: []
---
header:
  stamp:
    sec: 1750749985
    nanosec: 700074810
  frame_id: ''
name: []
position:
- 14.329501889871416
- 448.0604816598805
- -42.82378507974947
- 2.9915796407817044
- -0.535118088181499
- 2.371750092224397
velocity: []
effort: []
---
header:
  stamp:
    sec: 1750749985
    nanosec: 701834389
  frame_id: ''
name: []
position:
- 14.974501889871426
- 447.9574816598805
- -42.5627850797495
- 2.991649463940346
- -0.5333954984189537
- 2.371166926387764
velocity: []
effort: []
---
header:
  stamp:
    sec: 1750749985
    nanosec: 703691670
  frame_id: ''
name: []
position:
- 15.303501889871434
- 447.89848165988053
- -42.398785079749516
- 2.99153204557935
- -0.5331028195001404
- 2.370301429535998
velocity: []
effort: []
---
header:
  stamp:
    sec: 1750749985
    nanosec: 705481517
  frame_id: ''
name: []
position:
- 15.548501889871439
- 447.84548165988053
- -42.23478507974953
- 2.991179988772924
- -0.5332068346746481
- 2.369473597692142
velocity: []
effort: []
---
header:
  stamp:
    sec: 1750749985
    nanosec: 707244879
  frame_id: ''
name: []
position:
- 15.742501889871455
- 447.8104816598805
- -42.066785079749636
- 2.990643408853367
- -0.5333855254167641
- 2.3689255771891795
velocity: []
effort: []
---
header:
  stamp:
    sec: 1750749985
    nanosec: 709029826
  frame_id: ''
name: []
position:
- 15.912501889871415
- 447.79648165988056
- -41.883785079749416
- 2.990296678655152
- -0.5334419419105147
- 2.368583561884108
velocity: []
effort: []
---
header:
  stamp:
    sec: 1750749985
    nanosec: 710914343
  frame_id: ''
name: []
position:
- 16.055501889871415
- 447.7784816598805
- -41.64478507974961
- 2.9899493107225
- -0.5330742831120359
- 2.368352088328393
velocity: []
effort: []
---
header:
  stamp:
    sec: 1750749985
    nanosec: 712593407
  frame_id: ''
name: []
position:
- 16.226501889871436
- 447.77248165988055
- -41.34978507974954
- 2.9895573392230506
- -0.5325614437536612
- 2.3681159018442313
velocity: []
effort: []
---
header:
  stamp:
    sec: 1750749985
    nanosec: 714398393
  frame_id: ''
name: []
position:
- 16.374501889871432
- 447.7764816598805
- -41.07078507974954
- 2.9888486823384333
- -0.5320842651566553
- 2.367987086697578
velocity: []
effort: []
---
header:
  stamp:
    sec: 1750749985
    nanosec: 716195518
  frame_id: ''
name: []
position:
- 16.499501889871432
- 447.7814816598805
- -40.814785079749456
- 2.9880999291318755
- -0.5319910529769962
- 2.3680510790004465
velocity: []
effort: []
---
header:
  stamp:
    sec: 1750749985
    nanosec: 719195059
  frame_id: ''
name: []
position:
- 16.623501889871456
- 447.7904816598805
- -40.58878507974934
- 2.9874707628749837
- -0.5320306152814354
- 2.368020634186567
velocity: []
effort: []
---
header:
  stamp:
    sec: 1750749985
    nanosec: 721661605
  frame_id: ''
name: []
position:
- 16.742501889871427
- 447.7914816598805
- -40.35978507974953
- 2.9870161054102944
- -0.5319780540861312
- 2.3677505312490412
velocity: []
effort: []
---
header:
  stamp:
    sec: 1750749985
    nanosec: 723279158
  frame_id: ''
name: []
position:
- 16.85250188987144
- 447.7844816598805
- -40.10078507974974
- 2.9864679812388557
- -0.5318185199793108
- 2.36746025184351
velocity: []
effort: []
---
header:
  stamp:
    sec: 1750749985
    nanosec: 728624450
  frame_id: ''
name: []
position:
- 16.933501889871458
- 447.7884816598805
- -39.81478507974968
- 2.985723802161434
- -0.5320384289740336
- 2.3673671960408984
velocity: []
effort: []
---
header:
  stamp:
    sec: 1750749985
    nanosec: 737548463
  frame_id: ''
name: []
position:
- 16.990501889871446
- 447.8004816598805
- -39.50578507974949
- 2.984613868399574
- -0.5325607278250273
- 2.3675925404535585
velocity: []
effort: []
---
header:
  stamp:
    sec: 1750749985
    nanosec: 751366543
  frame_id: ''
name: []
position:
- 17.012501889871437
- 447.81648165988054
- -39.176785079749536
- 2.983903959778955
- -0.533144955238428
- 2.367785185243633
velocity: []
effort: []
---
header:
  stamp:
    sec: 1750749985
    nanosec: 773151856
  frame_id: ''
name: []
position:
- 17.003501889871423
- 447.8584816598805
- -38.87778507974933
- 2.9830394750483626
- -0.5336358716649467
- 2.368212206977978
velocity: []
effort: []
---
header:
  stamp:
    sec: 1750749985
    nanosec: 781943065
  frame_id: ''
name: []
position:
- 16.964501889871435
- 447.91948165988055
- -38.57078507974954
- 2.9821742481580076
- -0.5335800426186021
- 2.3683560436539537
velocity: []
effort: []
---
header:
  stamp:
    sec: 1750749985
    nanosec: 784897422
  frame_id: ''
name: []
position:
- 16.900501889871443
- 447.9814816598805
- -38.24278507974957
- 2.981342145395518
- -0.5333839230225026
- 2.3685014177138695
velocity: []
effort: []
---
header:
  stamp:
    sec: 1750749985
    nanosec: 795796299
  frame_id: ''
name: []
position:
- 16.811501889871444
- 448.04948165988054
- -37.96178507974962
- 2.9805555612437855
- -0.533317386711947
- 2.3686627936938214
velocity: []
effort: []
---
header:
  stamp:
    sec: 1750749985
    nanosec: 805138662
  frame_id: ''
name: []
position:
- 16.67950188987144
- 448.1354816598805
- -37.66278507974941
- 2.979900481903936
- -0.5326470985000304
- 2.368803108639078
velocity: []
effort: []
---
header:
  stamp:
    sec: 1750749985
    nanosec: 816588408
  frame_id: ''
name: []
position:
- 16.524501889871438
- 448.22448165988055
- -37.347785079749585
- 2.9779686946444137
- -0.5320707531656934
- 2.370011611496145
velocity: []
effort: []
---
header:
  stamp:
    sec: 1750749985
    nanosec: 830085572
  frame_id: ''
name: []
position:
- 16.35250188987144
- 448.3074816598805
- -37.016785079749454
- 2.9762981938171187
- -0.5317074570717748
- 2.371278519775805
velocity: []
effort: []
---
header:
  stamp:
    sec: 1750749985
    nanosec: 838264106
  frame_id: ''
name: []
position:
- 16.183501889871458
- 448.38148165988054
- -36.70678507974951
- 2.9754098536993157
- -0.5316223042258781
- 2.3720704559313797
velocity: []
effort: []
---
header:
  stamp:
    sec: 1750749985
    nanosec: 849685470
  frame_id: ''
name: []
position:
- 16.073501889871444
- 448.4304816598805
- -36.51078507974937
- 2.9743323196368023
- -0.5315150830177324
- 2.373148416975241
velocity: []
effort: []
---
header:
  stamp:
    sec: 1750749985
    nanosec: 860621776
  frame_id: ''
name: []
position:
- 16.014501889871447
- 448.4594816598805
- -36.404785079749374
- 2.9735078080462447
- -0.5318399369951388
- 2.3740061160078385
velocity: []
effort: []
---
header:
  stamp:
    sec: 1750749986
    nanosec: 159150741
  frame_id: ''
name: []
position:
- 15.968501889871426
- 448.47948165988055
- -36.33178507974951
- 2.972665192721877
- -0.5321549175450198
- 2.375021864082284
velocity: []
effort: []
---
header:
  stamp:
    sec: 1750749986
    nanosec: 160908905
  frame_id: ''
name: []
position:
- 15.83250188987143
- 448.5404816598805
- -36.041785079749545
- 2.970258049024778
- -0.5321222252201017
- 2.376989128305421
velocity: []
effort: []
---
header:
  stamp:
    sec: 1750749986
    nanosec: 162675667
  frame_id: ''
name: []
position:
- 16.039501889871453
- 448.5934816598805
- -36.09378507974945
- 2.9701700877931048
- -0.5311037314247864
- 2.3772378295094816
velocity: []
effort: []
---
header:
  stamp:
    sec: 1750749986
    nanosec: 164571294
  frame_id: ''
name: []
position:
- 16.273501889871433
- 448.5814816598805
- -36.28878507974939
- 2.9703728818547885
- -0.5310274505963737
- 2.377090039182818
velocity: []
effort: []
---
header:
  stamp:
    sec: 1750749986
    nanosec: 166410811
  frame_id: ''
name: []
position:
- 16.494501889871437
- 448.55448165988054
- -36.490785079749614
- 2.970767738086187
- -0.5311354989844996
- 2.3765886851593416
velocity: []
effort: []
---
header:
  stamp:
    sec: 1750749986
    nanosec: 168309698
  frame_id: ''
name: []
position:
- 16.68550188987144
- 448.5334816598805
- -36.72478507974954
- 2.971130538021602
- -0.5324318648499511
- 2.3763552086901996
velocity: []
effort: []
---
header:
  stamp:
    sec: 1750749986
    nanosec: 170136862
  frame_id: ''
name: []
position:
- 16.87850188987145
- 448.54948165988054
- -37.0437850797495
- 2.971306502245321
- -0.5336968189077109
- 2.376530994871451
velocity: []
effort: []
---
header:
  stamp:
    sec: 1750749986
    nanosec: 172066892
  frame_id: ''
name: []
position:
- 17.127501889871446
- 448.5554816598805
- -37.50778507974967
- 2.972391033878829
- -0.5350614029452301
- 2.376559737200124
velocity: []
effort: []
---
header:
  stamp:
    sec: 1750749986
    nanosec: 173854214
