header:
  stamp:
    sec: 1750749512
    nanosec: 246598323
  frame_id: ''
name: []
position:
- -50.776554413704844
- 482.505201164236
- -44.90238669812693
- -2.1577659965989673
- -0.6027881376585923
- 1.1462969414903181
velocity: []
effort: []
---
header:
  stamp:
    sec: 1750749512
    nanosec: 257193619
  frame_id: ''
name: []
position:
- -50.774554413704834
- 482.505201164236
- -44.901386698126956
- -2.1577635056499203
- -0.6027407908733575
- 1.1463478649910943
velocity: []
effort: []
---
header:
  stamp:
    sec: 1750749512
    nanosec: 270526828
  frame_id: ''
name: []
position:
- -50.77555441370481
- 482.505201164236
- -44.90238669812693
- -2.157790466699039
- -0.6027699773472903
- 1.1463339260402923
velocity: []
effort: []
---
header:
  stamp:
    sec: 1750749512
    nanosec: 545408579
  frame_id: ''
name: []
position:
- -50.77555441370481
- 482.505201164236
- -44.90038669812709
- -2.1577477861954986
- -0.6027280658332642
- 1.1462858166462622
velocity: []
effort: []
---
header:
  stamp:
    sec: 1750749512
    nanosec: 547082167
  frame_id: ''
name: []
position:
- -50.77555441370481
- 482.505201164236
- -44.90038669812709
- -2.1577944358350347
- -0.6027231492337523
- 1.1463541139915128
velocity: []
effort: []
---
header:
  stamp:
    sec: 1750749512
    nanosec: 549271584
  frame_id: ''
name: []
position:
- -50.77555441370481
- 482.504201164236
- -44.90238669812693
- -2.157777770646164
- -0.6027897230453668
- 1.1463524827676383
velocity: []
effort: []
---
header:
  stamp:
    sec: 1750749512
    nanosec: 551593730
  frame_id: ''
name: []
position:
- -50.77555441370481
- 482.505201164236
- -44.901386698126956
- -2.15776673530151
- -0.6027377558868258
- 1.1463176866871974
velocity: []
effort: []
---
header:
  stamp:
    sec: 1750749512
    nanosec: 553360114
  frame_id: ''
name: []
position:
- -50.77555441370481
- 482.505201164236
- -44.901386698126956
- -2.157738182286952
- -0.6027541408978061
- 1.1463146521650625
velocity: []
effort: []
---
header:
  stamp:
    sec: 1750749512
    nanosec: 555116619
  frame_id: ''
name: []
position:
- -50.77555441370481
- 482.505201164236
- -44.901386698126956
- -2.157782074007992
- -0.6027469621247098
- 1.146343903671106
velocity: []
effort: []
---
header:
  stamp:
    sec: 1750749512
    nanosec: 556873892
  frame_id: ''
name: []
position:
- -50.77555441370481
- 482.505201164236
- -44.901386698126956
- -2.157827445860187
- -0.6027380305900344
- 1.1463747771681536
velocity: []
effort: []
---
header:
  stamp:
    sec: 1750749512
    nanosec: 558537454
  frame_id: ''
name: []
position:
- -50.77555441370481
- 482.505201164236
- -44.90238669812693
- -2.1577937177576674
- -0.6027735377773561
- 1.1463332939530553
velocity: []
effort: []
---
header:
  stamp:
    sec: 1750749512
    nanosec: 560376163
  frame_id: ''
name: []
position:
- -50.77355441370486
- 482.504201164236
- -44.90038669812709
- -2.1577499187365943
- -0.6027073376454188
- 1.146363378498079
velocity: []
effort: []
---
header:
  stamp:
    sec: 1750749512
    nanosec: 562131445
  frame_id: ''
name: []
position:
- -50.77555441370481
- 482.505201164236
- -44.901386698126956
- -2.1577834540634004
- -0.6027453642136684
- 1.1463454714720716
velocity: []
effort: []
---
header:
  stamp:
    sec: 1750749512
    nanosec: 563852851
  frame_id: ''
name: []
position:
- -50.776554413704844
- 482.505201164236
- -44.901386698126956
- -2.157786846403697
- -0.6027446437080807
- 1.1463161199301715
velocity: []
effort: []
---
header:
  stamp:
    sec: 1750749512
    nanosec: 565688095
  frame_id: ''
name: []
position:
- -50.77555441370481
- 482.505201164236
- -44.901386698126956
- -2.157734446011668
- -0.6027541788265828
- 1.146312457795915
velocity: []
effort: []
---
header:
  stamp:
    sec: 1750749512
    nanosec: 567547099
  frame_id: ''
name: []
position:
- -50.774554413704834
- 482.504201164236
- -44.90338669812702
- -2.1577486499037972
- -0.6028085493501781
- 1.1463495668665722
velocity: []
effort: []
---
header:
  stamp:
    sec: 1750749512
    nanosec: 571169684
  frame_id: ''
name: []
position:
- -50.774554413704834
- 482.504201164236
- -44.90238669812693
- -2.15774657186755
- -0.6027786612992113
- 1.1463325752551865
velocity: []
effort: []
---
header:
  stamp:
    sec: 1750749512
    nanosec: 574507589
  frame_id: ''
name: []
position:
- -50.77555441370481
- 482.505201164236
- -44.90038669812709
- -2.157802914689186
- -0.6027053475937878
- 1.1463605789541045
velocity: []
effort: []
---
header:
  stamp:
    sec: 1750749512
    nanosec: 577264170
  frame_id: ''
name: []
position:
- -50.774554413704834
- 482.504201164236
- -44.901386698126956
- -2.157778477793107
- -0.6027481774980399
- 1.1463697758859013
velocity: []
effort: []
---
header:
  stamp:
    sec: 1750749512
    nanosec: 578875013
  frame_id: ''
name: []
position:
- -50.774554413704834
- 482.504201164236
- -44.90338669812702
- -2.1577967877756947
- -0.6028096004596019
- 1.1463880910999937
velocity: []
effort: []
---
header:
  stamp:
    sec: 1750749512
    nanosec: 582539897
  frame_id: ''
name: []
position:
- -50.77555441370481
- 482.505201164236
- -44.90238669812693
- -2.1577937764491413
- -0.6027735578776454
- 1.146333309773685
velocity: []
effort: []
---
header:
  stamp:
    sec: 1750749512
    nanosec: 592092489
  frame_id: ''
name: []
position:
- -50.776554413704844
- 482.506201164236
- -44.901386698126956
- -2.1577715530034665
- -0.6027377118218251
- 1.1462906806587918
velocity: []
effort: []
---
header:
  stamp:
    sec: 1750749512
    nanosec: 601792533
  frame_id: ''
name: []
position:
- -50.774554413704834
- 482.504201164236
- -44.90038669812709
- -2.157790090807895
- -0.6027244846184221
- 1.1463856561483499
velocity: []
effort: []
---
header:
  stamp:
    sec: 1750749512
    nanosec: 612957682
  frame_id: ''
name: []
position:
- -50.774554413704834
- 482.504201164236
- -44.90038669812709
- -2.157744043369262
- -0.6027352543992784
- 1.1463511529932344
velocity: []
effort: []
---
header:
  stamp:
    sec: 1750749512
    nanosec: 626106926
  frame_id: ''
name: []
position:
- -50.77555441370481
- 482.505201164236
- -44.901386698126956
- -2.157782074007992
- -0.60274696212471
- 1.146343921124399
velocity: []
effort: []
---
header:
  stamp:
    sec: 1750749512
    nanosec: 635295361
  frame_id: ''
name: []
position:
- -50.77555441370481
- 482.505201164236
- -44.90238669812693
- -2.157795422919219
- -0.6027752511447205
- 1.1463330309955617
velocity: []
effort: []
---
header:
  stamp:
    sec: 1750749512
    nanosec: 646644541
  frame_id: ''
name: []
position:
- -50.77555441370481
- 482.505201164236
- -44.901386698126956
- -2.1577995802341565
- -0.6027518282482114
- 1.1463410253479076
velocity: []
effort: []
---
header:
  stamp:
    sec: 1750749512
    nanosec: 657236267
  frame_id: ''
name: []
position:
- -50.77555441370481
- 482.505201164236
- -44.90038669812709
- -2.1577480754615674
- -0.6027338119151769
- 1.1463225053332413
velocity: []
effort: []
---
header:
  stamp:
    sec: 1750749512
    nanosec: 669125539
  frame_id: ''
name: []
position:
- -50.77555441370481
- 482.504201164236
- -44.90238669812693
- -2.15776138602088
- -0.6027901350298351
- 1.1463280774041413
velocity: []
effort: []
---
header:
  stamp:
    sec: 1750749512
    nanosec: 689853906
  frame_id: ''
name: []
position:
- -50.77555441370481
- 482.505201164236
- -44.901386698126956
- -2.157757491025923
- -0.6027594365570592
- 1.1463113980097361
velocity: []
effort: []
---
header:
  stamp:
    sec: 1750749512
    nanosec: 697836919
  frame_id: ''
name: []
position:
- -50.776554413704844
- 482.505201164236
- -44.901386698126956
- -2.157788042152105
- -0.6027435473711514
- 1.1463140973309445
velocity: []
effort: []
---
header:
  stamp:
    sec: 1750749512
    nanosec: 706886337
  frame_id: ''
name: []
position:
- -50.774554413704834
- 482.504201164236
- -44.901386698126956
- -2.1577533583015853
- -0.6027610328466795
- 1.146340042518736
velocity: []
effort: []
---
header:
  stamp:
    sec: 1750749512
    nanosec: 713042274
  frame_id: ''
name: []
position:
- -50.776554413704844
- 482.506201164236
- -44.901386698126956
- -2.1578209230274137
- -0.602755184591118
- 1.146312303177764
velocity: []
effort: []
---
header:
  stamp:
    sec: 1750749512
    nanosec: 723943765
  frame_id: ''
name: []
position:
- -50.77555441370481
- 482.505201164236
- -44.90038669812709
- -2.1577962709104304
- -0.6027200130753093
- 1.1463558381950276
velocity: []
effort: []
---
header:
  stamp:
    sec: 1750749512
    nanosec: 737941793
  frame_id: ''
name: []
position:
- -50.774554413704834
- 482.504201164236
- -44.901386698126956
- -2.1577511256464588
- -0.6027617740337968
- 1.1463403427663696
velocity: []
effort: []
---
header:
  stamp:
    sec: 1750749513
    nanosec: 15296231
  frame_id: ''
name: []
position:
- -50.774554413704834
- 482.504201164236
- -44.90238669812693
- -2.157755398365878
- -0.602794860735037
- 1.1463617232442818
velocity: []
effort: []
---
header:
  stamp:
    sec: 1750749513
    nanosec: 17132929
  frame_id: ''
name: []
position:
- -50.774554413704834
- 482.504201164236
- -44.90238669812693
- -2.1578007333263214
- -0.6027778227339337
- 1.1463827879002857
velocity: []
effort: []
---
header:
  stamp:
    sec: 1750749513
    nanosec: 18966062
  frame_id: ''
name: []
position:
- -50.77555441370481
- 482.504201164236
- -44.90238669812693
- -2.157788075512398
- -0.6027734877738137
- 1.1463622949291845
velocity: []
effort: []
---
header:
  stamp:
    sec: 1750749513
    nanosec: 20742865
  frame_id: ''
name: []
position:
- -50.774554413704834
- 482.504201164236
- -44.901386698126956
- -2.1577790670852837
- -0.6027468734607544
- 1.1463770960698723
velocity: []
effort: []
---
header:
  stamp:
    sec: 1750749513
    nanosec: 22521435
  frame_id: ''
name: []
position:
- -50.774554413704834
- 482.504201164236
- -44.901386698126956
- -2.15775323817301
- -0.602761179936531
- 1.146340010902264
velocity: []
effort: []
---
header:
  stamp:
    sec: 1750749513
    nanosec: 24278347
  frame_id: ''
name: []
position:
- -50.77555441370481
- 482.505201164236
- -44.901386698126956
- -2.1577858713374054
- -0.6027454391596863
- 1.1463180026675692
velocity: []
effort: []
---
header:
  stamp:
    sec: 1750749513
    nanosec: 26086588
  frame_id: ''
name: []
position:
- -50.77355441370486
- 482.504201164236
- -44.901386698126956
- -2.157774509516619
- -0.6027479478093688
- 1.1464151657658426
velocity: []
effort: []
---
header:
  stamp:
    sec: 1750749513
    nanosec: 27825419
  frame_id: ''
name: []
position:
- -50.77555441370481
- 482.505201164236
- -44.90238669812693
- -2.1577938938320926
- -0.6027735980782185
- 1.146333306508365
velocity: []
effort: []
---
header:
  stamp:
    sec: 1750749513
    nanosec: 29508446
  frame_id: ''
name: []
position:
- -50.774554413704834
- 482.505201164236
- -44.901386698126956
- -2.157798306232115
- -0.6027528977925293
- 1.1463703878086091
velocity: []
effort: []
---
header:
  stamp:
    sec: 1750749513
    nanosec: 31327383
  frame_id: ''
name: []
position:
- -50.77555441370481
- 482.504201164236
- -44.90238669812693
- -2.1577614055847603
- -0.6027901417302648
- 1.14632810594904
velocity: []
effort: []
---
header:
  stamp:
    sec: 1750749513
    nanosec: 33106820
  frame_id: ''
name: []
position:
- -50.77555441370481
- 482.505201164236
- -44.901386698126956
- -2.15778291487711
- -0.6027459324811432
- 1.146344840523555
velocity: []
effort: []
---
header:
  stamp:
    sec: 1750749513
    nanosec: 34907443
  frame_id: ''
name: []
position:
- -50.774554413704834
- 482.504201164236
- -44.901386698126956
- -2.1577296845029696
- -0.6027557479368251
- 1.1463439413305498
velocity: []
effort: []
---
header:
  stamp:
    sec: 1750749513
    nanosec: 36805832
  frame_id: ''
name: []
position:
- -50.776554413704844
- 482.506201164236
- -44.901386698126956
- -2.1577910377326184
- -0.6027430674415777
- 1.1462871071094942
velocity: []
effort: []
---
header:
  stamp:
    sec: 1750749513
    nanosec: 38461743
  frame_id: ''
name: []
position:
- -50.77555441370481
- 482.505201164236
- -44.90038669812709
- -2.157818074515724
- -0.6027146805246055
- 1.1463555067318016
velocity: []
effort: []
---
header:
  stamp:
    sec: 1750749513
    nanosec: 40275757
  frame_id: ''
name: []
position:
- -50.77555441370481
- 482.505201164236
- -44.90038669812709
- -2.157793005723696
- -0.6027254829260954
- 1.1463528034239083
velocity: []
effort: []
---
header:
  stamp:
    sec: 1750749513
    nanosec: 42028836
  frame_id: ''
name: []
position:
- -50.77555441370481
- 482.505201164236
- -44.90238669812693
- -2.1577828082266297
- -0.602796154140341
- 1.146324538478374
velocity: []
effort: []
---
header:
  stamp:
    sec: 1750749513
    nanosec: 44372706
  frame_id: ''
name: []
position:
- -50.77555441370481
- 482.505201164236
- -44.90238669812693
- -2.1577821533270996
- -0.6027925416542912
- 1.146325587256856
velocity: []
effort: []
---
header:
  stamp:
    sec: 1750749513
    nanosec: 47181382
  frame_id: ''
name: []
position:
- -50.776554413704844
- 482.506201164236
- -44.90038669812709
- -2.1577991858221806
- -0.6027210113732363
- 1.1463227062048722
velocity: []
effort: []
---
header:
  stamp:
    sec: 1750749513
    nanosec: 57691508
  frame_id: ''
name: []
position:
- -50.774554413704834
- 482.504201164236
- -44.90238669812693
- -2.157784102032192
- -0.6027749504365725
- 1.146391324871268
velocity: []
effort: []
---
header:
  stamp:
    sec: 1750749513
    nanosec: 68978261
  frame_id: ''
name: []
position:
- -50.77555441370481
- 482.505201164236
- -44.90238669812693
- -2.1578108674574423
- -0.6027812933281319
- 1.1463614108708258
velocity: []
effort: []
---
header:
  stamp:
    sec: 1750749513
    nanosec: 80653553
  frame_id: ''
name: []
position:
- -50.774554413704834
- 482.505201164236
- -44.89938669812689
- -2.157785106745486
- -0.6026888958979002
- 1.1463693166288407
velocity: []
effort: []
---
header:
  stamp:
    sec: 1750749513
    nanosec: 119804502
  frame_id: ''
name: []
position:
- -50.77555441370481
- 482.505201164236
- -44.90238669812693
- -2.157749969803307
- -0.6027775662797016
- 1.1463064527026379
velocity: []
effort: []
---
header:
  stamp:
    sec: 1750749513
    nanosec: 123481570
  frame_id: ''
name: []
position:
- -50.774554413704834
- 482.505201164236
- -44.90038669812709
- -2.1578186074057983
- -0.6027118513276859
- 1.1463864663359908
velocity: []
effort: []
---
header:
  stamp:
    sec: 1750749513
    nanosec: 125317316
  frame_id: ''
name: []
position:
- -50.774554413704834
- 482.505201164236
- -44.901386698126956
- -2.1577644923930377
- -0.6027418817613466
- 1.1463469471696524
velocity: []
effort: []
---
header:
  stamp:
    sec: 1750749513
    nanosec: 128701152
  frame_id: ''
name: []
position:
- -50.774554413704834
- 482.504201164236
- -44.901386698126956
- -2.157804384460471
- -0.6027338974531418
- 1.1464073932444168
velocity: []
effort: []
---
header:
  stamp:
    sec: 1750749513
    nanosec: 134985340
  frame_id: ''
name: []
position:
- -50.774554413704834
- 482.505201164236
- -44.90038669812709
- -2.1577451993622567
- -0.6027315091952473
- 1.1463210558295738
velocity: []
effort: []
---
header:
  stamp:
    sec: 1750749513
    nanosec: 147355352
  frame_id: ''
name: []
position:
- -50.77555441370481
- 482.505201164236
- -44.901386698126956
- -2.157757292644047
- -0.6027595568454969
- 1.1463111649510331
velocity: []
effort: []
---
header:
  stamp:
    sec: 1750749513
    nanosec: 158418756
  frame_id: ''
name: []
position:
- -50.77555441370481
- 482.505201164236
- -44.90038669812709
- -2.1577946788176785
- -0.6027226677550901
- 1.1463543691593117
velocity: []
effort: []
---
header:
  stamp:
    sec: 1750749513
    nanosec: 170331872
  frame_id: ''
name: []
position:
- -50.774554413704834
- 482.505201164236
- -44.90038669812709
- -2.1577835560034924
- -0.6026994704605662
- 1.1463640452792965
velocity: []
effort: []
---
header:
  stamp:
    sec: 1750749513
    nanosec: 181799737
  frame_id: ''
name: []
position:
- -50.774554413704834
- 482.505201164236
- -44.90038669812709
- -2.157756284883508
- -0.6027089533975845
- 1.1463298070681907
velocity: []
effort: []
---
header:
  stamp:
    sec: 1750749513
    nanosec: 192323334
  frame_id: ''
name: []
position:
- -50.77555441370481
- 482.505201164236
- -44.901386698126956
- -2.1577303380341952
- -0.6027540894353438
- 1.14631007015354
velocity: []
effort: []
---
header:
  stamp:
    sec: 1750749513
    nanosec: 203915495
  frame_id: ''
name: []
position:
- -50.774554413704834
- 482.504201164236
- -44.901386698126956
- -2.1577376320806145
- -0.6027554583208702
- 1.1463426970138824
velocity: []
effort: []
---
header:
  stamp:
    sec: 1750749513
    nanosec: 213334032
  frame_id: ''
name: []
position:
- -50.776554413704844
- 482.505201164236
- -44.90238669812693
- -2.1578375867218806
- -0.6027639028635936
- 1.1463640474395684
velocity: []
effort: []
---
header:
  stamp:
    sec: 1750749513
    nanosec: 489698514
  frame_id: ''
name: []
position:
- -50.77555441370481
- 482.504201164236
- -44.90338669812702
- -2.1578168147157832
- -0.602811564847866
- 1.1463809037289425
velocity: []
effort: []
---
header:
  stamp:
    sec: 1750749513
    nanosec: 491321998
  frame_id: ''
name: []
position:
- -50.774554413704834
- 482.504201164236
- -44.901386698126956
- -2.157750969138725
- -0.6027617204298741
- 1.1463404111186868
velocity: []
effort: []
---
header:
  stamp:
    sec: 1750749513
    nanosec: 492893015
  frame_id: ''
name: []
position:
- -50.776554413704844
- 482.506201164236
- -44.89938669812689
- -2.1577934373549805
- -0.6026906196524102
- 1.1463032388860788
velocity: []
effort: []
---
header:
  stamp:
    sec: 1750749513
    nanosec: 494447390
  frame_id: ''
name: []
position:
- -50.77555441370481
- 482.504201164236
- -44.90238669812693
- -2.1578234416723863
- -0.6027859759415461
- 1.1463851234755738
velocity: []
effort: []
---
header:
  stamp:
    sec: 1750749513
    nanosec: 496172677
  frame_id: ''
name: []
position:
- -50.77555441370481
- 482.505201164236
- -44.901386698126956
- -2.157738464104958
- -0.6027523550813318
- 1.1462803782621227
velocity: []
effort: []
---
header:
  stamp:
    sec: 1750749513
    nanosec: 498919375
  frame_id: ''
name: []
position:
- -50.77555441370481
- 482.505201164236
- -44.901386698126956
- -2.1578181434089982
- -0.6027583737714782
- 1.146367415705497
velocity: []
effort: []
---
header:
  stamp:
    sec: 1750749513
    nanosec: 500781805
  frame_id: ''
name: []
position:
- -50.776554413704844
- 482.505201164236
- -44.901386698126956
- -2.1577860110245357
- -0.6027452987676373
- 1.1463178708341595
velocity: []
effort: []
---
header:
  stamp:
    sec: 1750749513
    nanosec: 502671389
  frame_id: ''
name: []
position:
- -50.774554413704834
- 482.504201164236
- -44.901386698126956
- -2.1577787822210626
- -0.6027475288295268
- 1.1463739214889197
velocity: []
effort: []
---
header:
  stamp:
    sec: 1750749513
    nanosec: 504555832
  frame_id: ''
name: []
position:
- -50.774554413704834
- 482.504201164236
- -44.901386698126956
- -2.1578176996980734
- -0.6027604805962126
- 1.1464022294320493
velocity: []
effort: []
---
header:
  stamp:
    sec: 1750749513
    nanosec: 506389057
  frame_id: ''
name: []
position:
- -50.77555441370481
- 482.505201164236
- -44.90238669812693
- -2.1577727622600555
- -0.6027665491642734
- 1.1463368614742935
velocity: []
effort: []
---
header:
  stamp:
    sec: 1750749513
    nanosec: 508305294
  frame_id: ''
name: []
position:
- -50.774554413704834
- 482.504201164236
- -44.901386698126956
- -2.1577465951440047
- -0.6027368813358359
- 1.1463499355464646
velocity: []
effort: []
---
header:
  stamp:
    sec: 1750749513
    nanosec: 510108008
  frame_id: ''
name: []
position:
- -50.77555441370481
- 482.505201164236
- -44.90238669812693
- -2.1578079493051625
- -0.6027791645740911
- 1.1463593804163168
velocity: []
effort: []
---
header:
  stamp:
    sec: 1750749513
    nanosec: 513681805
  frame_id: ''
name: []
position:
- -50.774554413704834
- 482.504201164236
- -44.901386698126956
- -2.1577791285195858
- -0.6027467062684536
- 1.1463775656471544
velocity: []
effort: []
---
header:
  stamp:
    sec: 1750749513
    nanosec: 517018856
  frame_id: ''
name: []
position:
- -50.77555441370481
- 482.505201164236
- -44.90038669812709
- -2.1577964720243035
- -0.6027197054893466
- 1.1463560537571047
velocity: []
effort: []
---
header:
  stamp:
    sec: 1750749513
    nanosec: 520460950
  frame_id: ''
name: []
position:
- -50.77555441370481
- 482.505201164236
- -44.901386698126956
- -2.1577554371941057
- -0.602760050760592
- 1.1463085692025834
velocity: []
effort: []
---
header:
  stamp:
    sec: 1750749513
    nanosec: 523926345
  frame_id: ''
name: []
position:
- -50.774554413704834
- 482.504201164236
- -44.90238669812693
- -2.157742869790038
- -0.602781722723115
- 1.1463320835609228
velocity: []
effort: []
---
header:
  stamp:
    sec: 1750749513
    nanosec: 527418917
  frame_id: ''
name: []
position:
- -50.77355441370486
- 482.503201164236
- -44.90238669812693
- -2.157763334633982
- -0.6027712261051363
- 1.1464006109532634
velocity: []
effort: []
---
header:
  stamp:
    sec: 1750749513
    nanosec: 530713891
  frame_id: ''
name: []
position:
- -50.774554413704834
- 482.504201164236
- -44.901386698126956
- -2.1577787822210626
- -0.6027475288295268
- 1.1463739913020898
velocity: []
effort: []
---
header:
  stamp:
    sec: 1750749513
    nanosec: 536823576
  frame_id: ''
name: []
position:
- -50.77555441370481
- 482.505201164236
- -44.90038669812709
- -2.157841834508555
- -0.6027019238575112
- 1.1463863750302392
velocity: []
effort: []
---
header:
  stamp:
    sec: 1750749513
    nanosec: 546950306
  frame_id: ''
name: []
position:
- -50.77555441370481
- 482.505201164236
- -44.90038669812709
- -2.1577931677128124
- -0.6027251619404707
- 1.1463529619010242
velocity: []
effort: []
---
header:
  stamp:
    sec: 1750749513
    nanosec: 564512249
  frame_id: ''
name: []
position:
- -50.774554413704834
- 482.505201164236
- -44.90038669812709
- -2.1577877783330477
- -0.6027293395969304
- 1.1463777604529384
velocity: []
effort: []
---
header:
  stamp:
    sec: 1750749513
    nanosec: 570030565
  frame_id: ''
name: []
position:
- -50.774554413704834
- 482.504201164236
- -44.90238669812693
- -2.157809348455319
- -0.6027856671623628
- 1.1463985519202196
velocity: []
effort: []
---
header:
  stamp:
    sec: 1750749513
    nanosec: 581316313
  frame_id: ''
name: []
position:
- -50.77555441370481
- 482.505201164236
- -44.90238669812693
- -2.157794086727595
- -0.6027738523723967
- 1.146333295279834
velocity: []
effort: []
---
header:
  stamp:
    sec: 1750749513
    nanosec: 591133009
  frame_id: ''
name: []
position:
- -50.77555441370481
- 482.504201164236
- -44.90238669812693
- -2.1577624472987047
- -0.6027874867651487
- 1.1463287410236112
velocity: []
effort: []
---
header:
  stamp:
    sec: 1750749513
    nanosec: 606237880
  frame_id: ''
name: []
position:
- -50.774554413704834
- 482.505201164236
- -44.901386698126956
- -2.157800745824817
- -0.6027527921281549
- 1.1463740667499882
velocity: []
effort: []
---
header:
  stamp:
    sec: 1750749513
    nanosec: 612759904
  frame_id: ''
name: []
position:
- -50.77555441370481
- 482.505201164236
- -44.90038669812709
- -2.1577931872760168
- -0.6027251686405068
- 1.1463529729911999
velocity: []
effort: []
---
header:
  stamp:
    sec: 1750749513
    nanosec: 624201169
  frame_id: ''
name: []
position:
- -50.774554413704834
- 482.504201164236
- -44.901386698126956
- -2.157778558790982
- -0.6027480170059687
- 1.1463705358066743
velocity: []
effort: []
---
header:
  stamp:
    sec: 1750749513
    nanosec: 639817470
  frame_id: ''
name: []
position:
- -50.776554413704844
- 482.505201164236
- -44.901386698126956
- -2.1578326822041936
- -0.6027362474338016
- 1.1463464391633174
velocity: []
effort: []
---
header:
  stamp:
    sec: 1750749513
    nanosec: 646266199
  frame_id: ''
name: []
position:
- -50.776554413704844
- 482.505201164236
- -44.901386698126956
- -2.1577767298870842
- -0.6027641433588159
- 1.1463104208405674
velocity: []
effort: []
---
header:
  stamp:
    sec: 1750749513
    nanosec: 657124244
  frame_id: ''
name: []
position:
- -50.776554413704844
- 482.505201164236
- -44.90038669812709
- -2.1577972779809107
- -0.6027237461489471
- 1.1463237650251887
velocity: []
effort: []
---
header:
  stamp:
    sec: 1750749513
    nanosec: 670152725
  frame_id: ''
name: []
position:
- -50.77555441370481
- 482.505201164236
- -44.901386698126956
- -2.1577836747478436
- -0.6027450633294794
- 1.1463457330396114
velocity: []
effort: []
---
header:
  stamp:
    sec: 1750749513
    nanosec: 679418805
  frame_id: ''
name: []
position:
- -50.774554413704834
- 482.504201164236
- -44.901386698126956
- -2.157753003411381
- -0.6027610995308956
- 1.1463401570640732
velocity: []
effort: []
---
header:
  stamp:
    sec: 1750749513
    nanosec: 959893504
  frame_id: ''
name: []
position:
- -50.776554413704844
- 482.506201164236
- -44.901386698126956
- -2.1578382342879037
- -0.602734384162855
- 1.1463474255407904
velocity: []
effort: []
---
header:
  stamp:
    sec: 1750749513
    nanosec: 961574856
  frame_id: ''
name: []
position:
- -50.774554413704834
- 482.504201164236
- -44.901386698126956
- -2.157819778542592
- -0.602740675297651
- 1.1463983479278639
velocity: []
effort: []
---
header:
  stamp:
    sec: 1750749513
    nanosec: 963341658
  frame_id: ''
name: []
position:
- -50.774554413704834
- 482.504201164236
- -44.901386698126956
- -2.1577551159361636
- -0.6027605054314645
- 1.1463398077430755
velocity: []
effort: []
---
header:
  stamp:
    sec: 1750749513
    nanosec: 965195579
  frame_id: ''
name: []
position:
- -50.776554413704844
- 482.505201164236
- -44.901386698126956
- -2.1577612465418277
- -0.6027580875361672
- 1.1462816701399259
velocity: []
effort: []
---
header:
  stamp:
    sec: 1750749513
    nanosec: 967079467
  frame_id: ''
name: []
position:
- -50.77555441370481
- 482.505201164236
- -44.90038669812709
- -2.1577948994955305
- -0.6027223668693432
- 1.1463545783591729
velocity: []
effort: []
---
header:
  stamp:
    sec: 1750749513
    nanosec: 968911412
  frame_id: ''
name: []
position:
- -50.77555441370481
- 482.505201164236
- -44.901386698126956
- -2.1577830154377446
- -0.602745778689008
- 1.1463449832154666
velocity: []
effort: []
---
header:
  stamp:
    sec: 1750749513
    nanosec: 970756342
  frame_id: ''
name: []
position:
- -50.77555441370481
- 482.505201164236
- -44.901386698126956
- -2.157782233259087
- -0.6027468284331396
- 1.1463441145417859
velocity: []
effort: []
---
header:
  stamp:
    sec: 1750749513
    nanosec: 972627363
  frame_id: ''
name: []
position:
- -50.77555441370481
- 482.504201164236
- -44.90238669812693
- -2.157736566991315
- -0.602801210982622
- 1.1462946929539781
velocity: []
effort: []
---
header:
  stamp:
    sec: 1750749513
    nanosec: 974554581
  frame_id: ''
name: []
position:
- -50.77355441370486
- 482.504201164236
- -44.901386698126956
- -2.1577462048721756
- -0.6027634768726713
- 1.146372540457119
velocity: []
effort: []
---
header:
  stamp:
    sec: 1750749513
    nanosec: 976324739
  frame_id: ''
name: []
position:
- -50.776554413704844
- 482.505201164236
- -44.90238669812693
- -2.1578007126517944
- -0.60277386277385
- 1.1462981292819927
velocity: []
effort: []
---
header:
  stamp:
    sec: 1750749513
    nanosec: 978100972
  frame_id: ''
name: []
position:
- -50.77555441370481
- 482.504201164236
- -44.90238669812693
- -2.1577783709747127
- -0.6027983991471562
- 1.1463564898522862
velocity: []
effort: []
---
header:
  stamp:
    sec: 1750749513
    nanosec: 979872763
  frame_id: ''
name: []
position:
- -50.77555441370481
- 482.505201164236
- -44.901386698126956
- -2.157781554383895
- -0.6027475370919122
- 1.1463433361714173
velocity: []
effort: []
---
header:
  stamp:
    sec: 1750749514
    nanosec: 83002866
  frame_id: ''
name: []
position:
- -50.77555441370481
- 482.505201164236
- -44.901386698126956
- -2.157783694311255
- -0.6027450700296337
- 1.1463457615835184
velocity: []
effort: []
---
header:
  stamp:
    sec: 1750749514
    nanosec: 84750486
  frame_id: ''
name: []
position:
- -50.77555441370481
- 482.505201164236
- -44.90038669812709
- -2.1577932878337434
- -0.602725014847722
- 1.146353080773185
velocity: []
effort: []
---
header:
  stamp:
    sec: 1750749514
    nanosec: 86656937
  frame_id: ''
name: []
position:
- -50.77555441370481
- 482.505201164236
- -44.901386698126956
- -2.157805409431381
- -0.602751189337918
- 1.146342143573165
velocity: []
effort: []
---
header:
  stamp:
    sec: 1750749514
    nanosec: 88446837
  frame_id: ''
name: []
position:
- -50.77555441370481
- 482.505201164236
- -44.901386698126956
- -2.1577162742482336
- -0.6027464488176408
- 1.1462833985947323
velocity: []
effort: []
---
header:
  stamp:
    sec: 1750749514
    nanosec: 90280880
  frame_id: ''
name: []
position:
- -50.77555441370481
- 482.505201164236
- -44.90238669812693
- -2.157792554900304
- -0.6027723865983869
- 1.146333535922027
velocity: []
effort: []
---
header:
  stamp:
    sec: 1750749514
    nanosec: 92088372
  frame_id: ''
name: []
position:
- -50.77555441370481
- 482.505201164236
- -44.90038669812709
- -2.157851086076901
- -0.602725420922822
- 1.146376484665378
velocity: []
effort: []
---
header:
  stamp:
    sec: 1750749514
    nanosec: 94137977
  frame_id: ''
name: []
position:
- -50.77555441370481
- 482.505201164236
- -44.901386698126956
- -2.1577672693451877
- -0.6027388799589039
- 1.1463188874568055
velocity: []
effort: []
---
header:
  stamp:
    sec: 1750749514
    nanosec: 95785586
  frame_id: ''
name: []
position:
- -50.77555441370481
- 482.505201164236
- -44.901386698126956
- -2.1578054681221674
- -0.6027512094377793
- 1.1463421593923255
velocity: []
effort: []
---
header:
  stamp:
    sec: 1750749514
    nanosec: 97555150
  frame_id: ''
name: []
position:
- -50.774554413704834
- 482.505201164236
- -44.90038669812709
- -2.1578350687031786
- -0.6027182416476966
- 1.146413432108812
velocity: []
effort: []
---
header:
  stamp:
    sec: 1750749514
    nanosec: 99462639
  frame_id: ''
name: []
position:
- -50.77555441370481
- 482.505201164236
- -44.90038669812709
- -2.1577778119638635
- -0.6027144440672436
- 1.1463261294768234
velocity: []
effort: []
---
header:
  stamp:
    sec: 1750749514
    nanosec: 102704189
  frame_id: ''
name: []
position:
- -50.776554413704844
- 482.506201164236
- -44.901386698126956
- -2.1577810417670316
- -0.6027637377783759
- 1.146278065088935
velocity: []
effort: []
---
header:
  stamp:
    sec: 1750749514
    nanosec: 104922933
  frame_id: ''
name: []
position:
- -50.77555441370481
- 482.505201164236
- -44.901386698126956
- -2.157733403657229
- -0.6027541982771836
- 1.146311887478668
velocity: []
effort: []
---
header:
  stamp:
    sec: 1750749514
    nanosec: 106523205
  frame_id: ''
name: []
position:
- -50.774554413704834
- 482.504201164236
- -44.90238669812693
- -2.1577938540792747
- -0.6028018193769011
- 1.1463809426575737
velocity: []
effort: []
---
header:
  stamp:
    sec: 1750749514
    nanosec: 108177271
  frame_id: ''
name: []
position:
- -50.77555441370481
- 482.505201164236
- -44.90038669812709
- -2.157750059908034
- -0.6027352445332013
- 1.146323549355252
velocity: []
effort: []
---
header:
  stamp:
    sec: 1750749514
    nanosec: 109683669
  frame_id: ''
name: []
position:
- -50.77555441370481
- 482.504201164236
- -44.90238669812693
- -2.1577883830461486
- -0.6027739695625346
- 1.1463629262359494
velocity: []
effort: []
---
header:
  stamp:
    sec: 1750749514
    nanosec: 117533425
  frame_id: ''
name: []
position:
- -50.774554413704834
- 482.505201164236
- -44.90038669812709
- -2.1577555857390243
- -0.6027177491233637
- 1.1463575338885599
velocity: []
effort: []
---
header:
  stamp:
    sec: 1750749514
    nanosec: 123792947
  frame_id: ''
name: []
position:
- -50.774554413704834
- 482.505201164236
- -44.90038669812709
- -2.1578193644958823
- -0.6027111694528886
- 1.1463873937318696
velocity: []
effort: []
---
header:
  stamp:
    sec: 1750749514
    nanosec: 134903412
  frame_id: ''
name: []
position:
- -50.77555441370481
- 482.505201164236
- -44.90238669812693
- -2.157794220931656
- -0.6027740865662867
- 1.1463332507774544
velocity: []
effort: []
---
header:
  stamp:
    sec: 1750749514
    nanosec: 147918015
  frame_id: ''
name: []
position:
- -50.77355441370486
- 482.504201164236
- -44.901386698126956
- -2.157712876953621
- -0.6027501792725831
- 1.1463467365214497
velocity: []
effort: []
---
header:
  stamp:
    sec: 1750749514
    nanosec: 158913414
  frame_id: ''
name: []
position:
- -50.77555441370481
- 482.505201164236
- -44.90038669812709
- -2.1577950000528308
- -0.6027222130764511
- 1.1463547035939374
velocity: []
effort: []
---
header:
  stamp:
    sec: 1750749514
    nanosec: 433381154
  frame_id: ''
name: []
position:
- -50.77555441370481
- 482.505201164236
- -44.901386698126956
- -2.1577370225527392
- -0.6027541201467193
- 1.1463140327579548
velocity: []
effort: []
---
header:
  stamp:
    sec: 1750749514
    nanosec: 435030640
  frame_id: ''
name: []
position:
- -50.774554413704834
- 482.504201164236
- -44.901386698126956
- -2.157754917553932
- -0.6027606257196353
- 1.1463398190298488
velocity: []
effort: []
---
header:
  stamp:
    sec: 1750749514
    nanosec: 436628545
  frame_id: ''
name: []
position:
- -50.77555441370481
- 482.505201164236
- -44.90238669812693
- -2.1577493718988165
- -0.6027781144347556
- 1.1463057709881173
velocity: []
effort: []
---
header:
  stamp:
    sec: 1750749514
    nanosec: 438190905
  frame_id: ''
name: []
position:
- -50.774554413704834
- 482.504201164236
- -44.90238669812693
- -2.157742350135649
- -0.6027822976780983
- 1.1463320047099166
velocity: []
effort: []
---
header:
  stamp:
    sec: 1750749514
    nanosec: 439969596
  frame_id: ''
name: []
position:
- -50.774554413704834
- 482.504201164236
- -44.901386698126956
- -2.15775053324625
- -0.6027619476042828
- 1.1463405162281717
velocity: []
effort: []
---
header:
  stamp:
    sec: 1750749514
    nanosec: 442218524
  frame_id: ''
name: []
position:
- -50.774554413704834
- 482.505201164236
- -44.89938669812689
- -2.157767988831175
- -0.6026911270494835
- 1.1463384752813508
velocity: []
effort: []
---
header:
  stamp:
    sec: 1750749514
    nanosec: 443825619
  frame_id: ''
name: []
position:
- -50.77555441370481
- 482.505201164236
- -44.90038669812709
- -2.157791695728469
- -0.6027276695245319
- 1.1463516291760716
velocity: []
effort: []
---
header:
  stamp:
    sec: 1750749514
    nanosec: 445398782
  frame_id: ''
name: []
position:
- -50.776554413704844
- 482.505201164236
- -44.90038669812709
- -2.1577976187787513
- -0.6027232981698083
- 1.1463236742163934
velocity: []
effort: []
---
header:
  stamp:
    sec: 1750749514
    nanosec: 446947062
  frame_id: ''
name: []
position:
- -50.77555441370481
- 482.505201164236
- -44.90038669812709
- -2.157777795144333
- -0.6027142500743636
- 1.146326066002026
velocity: []
effort: []
---
header:
  stamp:
    sec: 1750749514
    nanosec: 448480715
  frame_id: ''
name: []
position:
- -50.774554413704834
- 482.504201164236
- -44.901386698126956
- -2.157804999146194
- -0.602733543271739
- 1.1464090110427125
velocity: []
effort: []
---
header:
  stamp:
    sec: 1750749514
    nanosec: 450009140
  frame_id: ''
name: []
position:
- -50.77555441370481
- 482.505201164236
- -44.901386698126956
- -2.1577680577120795
- -0.6027400911348286
- 1.146320494203315
velocity: []
effort: []
---
header:
  stamp:
    sec: 1750749514
    nanosec: 451533091
  frame_id: ''
name: []
position:
- -50.774554413704834
- 482.504201164236
- -44.901386698126956
- -2.1577526457732983
- -0.6027613535076963
- 1.1463401669118247
velocity: []
effort: []
---
header:
  stamp:
    sec: 1750749514
    nanosec: 453281062
  frame_id: ''
name: []
position:
- -50.774554413704834
- 482.505201164236
- -44.90038669812709
- -2.1577559046118404
- -0.6027080702205637
- 1.1463297073664462
velocity: []
effort: []
---
header:
  stamp:
    sec: 1750749514
    nanosec: 455077644
  frame_id: ''
name: []
position:
- -50.77555441370481
- 482.505201164236
- -44.90038669812709
- -2.1577879620166813
- -0.6026966501436227
- 1.1463351429920667
velocity: []
effort: []
---
header:
  stamp:
    sec: 1750749514
    nanosec: 456797273
  frame_id: ''
name: []
position:
- -50.774554413704834
- 482.505201164236
- -44.90038669812709
- -2.157815495307963
- -0.6027149266106131
- 1.1463828869797594
velocity: []
effort: []
---
header:
  stamp:
    sec: 1750749514
    nanosec: 458543473
  frame_id: ''
name: []
position:
- -50.774554413704834
- 482.505201164236
- -44.901386698126956
- -2.1577629410614882
- -0.6027404092706906
- 1.1463483112894268
velocity: []
effort: []
---
header:
  stamp:
    sec: 1750749514
    nanosec: 469618892
  frame_id: ''
name: []
position:
- -50.774554413704834
- 482.505201164236
- -44.90038669812709
- -2.1577973829980897
- -0.6027098529693987
- 1.1463859284035411
velocity: []
effort: []
---
header:
  stamp:
    sec: 1750749514
    nanosec: 479586425
  frame_id: ''
name: []
position:
- -50.774554413704834
- 482.505201164236
- -44.90038669812709
- -2.157772963091425
- -0.6027125951271781
- 1.146360310335321
velocity: []
effort: []
---
header:
  stamp:
    sec: 1750749514
    nanosec: 490670246
  frame_id: ''
name: []
position:
- -50.77555441370481
- 482.505201164236
- -44.90238669812693
- -2.157772365842196
- -0.6027681074951362
- 1.146336860422754
velocity: []
effort: []
---
header:
  stamp:
    sec: 1750749514
    nanosec: 501581686
  frame_id: ''
name: []
position:
- -50.77555441370481
- 482.505201164236
- -44.901386698126956
- -2.1577568176263116
- -0.6027597706205763
- 1.1463105672034521
velocity: []
effort: []
---
header:
  stamp:
    sec: 1750749514
    nanosec: 512641291
  frame_id: ''
name: []
position:
- -50.774554413704834
- 482.504201164236
- -44.90038669812709
- -2.157739811926275
- -0.602732863920194
- 1.1463530921871319
velocity: []
effort: []
---
header:
  stamp:
    sec: 1750749514
    nanosec: 529914806
  frame_id: ''
name: []
position:
- -50.774554413704834
- 482.504201164236
- -44.90238669812693
- -2.157742190876448
- -0.6027824313659138
- 1.1463319683600077
velocity: []
effort: []
---
header:
  stamp:
    sec: 1750749514
    nanosec: 542012511
  frame_id: ''
name: []
position:
- -50.774554413704834
- 482.504201164236
- -44.901386698126956
- -2.1577222327484824
- -0.6027490544309816
- 1.1463190349259225
velocity: []
effort: []
---
header:
  stamp:
    sec: 1750749514
    nanosec: 547965317
  frame_id: ''
name: []
position:
- -50.774554413704834
- 482.505201164236
- -44.901386698126956
- -2.1577629829339973
- -0.6027402353787177
- 1.146348385806891
velocity: []
effort: []
---
header:
  stamp:
    sec: 1750749514
    nanosec: 557341816
  frame_id: ''
name: []
position:
- -50.776554413704844
- 482.506201164236
- -44.901386698126956
- -2.157813823428002
- -0.6027311066196611
- 1.1463218664799533
velocity: []
effort: []
---
header:
  stamp:
    sec: 1750749514
    nanosec: 568468340
  frame_id: ''
name: []
position:
- -50.77555441370481
- 482.505201164236
- -44.90038669812709
- -2.1577776088200755
- -0.60271757444208
- 1.1463269487554575
velocity: []
effort: []
---
header:
  stamp:
    sec: 1750749514
    nanosec: 579601643
  frame_id: ''
name: []
position:
- -50.77555441370481
- 482.505201164236
- -44.90238669812693
- -2.157743652654493
- -0.6027833084959876
- 1.1462990979487637
velocity: []
effort: []
---
header:
  stamp:
    sec: 1750749514
    nanosec: 592241659
  frame_id: ''
name: []
position:
- -50.774554413704834
- 482.504201164236
- -44.90238669812693
- -2.1578043393182256
- -0.6027813164581711
- 1.1463895113446267
velocity: []
effort: []
---
header:
  stamp:
    sec: 1750749514
    nanosec: 603717998
  frame_id: ''
name: []
position:
- -50.776554413704844
- 482.505201164236
- -44.901386698126956
- -2.157788399779138
- -0.602743293387107
- 1.1463134067862912
velocity: []
effort: []
---
header:
  stamp:
    sec: 1750749514
    nanosec: 612964001
  frame_id: ''
name: []
position:
- -50.774554413704834
- 482.504201164236
- -44.90038669812709
- -2.157789258553133
- -0.6027262701376586
- 1.1463829677383799
velocity: []
effort: []
---
header:
  stamp:
    sec: 1750749514
    nanosec: 623834673
  frame_id: ''
name: []
position:
- -50.776554413704844
- 482.505201164236
- -44.90238669812693
- -2.157767283716322
- -0.6027834961718292
- 1.1463024804675783
velocity: []
effort: []
---
header:
  stamp:
    sec: 1750749514
    nanosec: 905622989
  frame_id: ''
name: []
position:
- -50.774554413704834
- 482.504201164236
- -44.901386698126956
- -2.157752547955953
- -0.6027613200053221
- 1.1463401812704492
velocity: []
effort: []
---
header:
  stamp:
    sec: 1750749514
    nanosec: 908122418
  frame_id: ''
name: []
position:
- -50.774554413704834
- 482.504201164236
- -44.901386698126956
- -2.157752547955953
- -0.6027613200053218
- 1.1463401987237416
velocity: []
effort: []
---
header:
  stamp:
    sec: 1750749514
    nanosec: 912101709
  frame_id: ''
name: []
position:
- -50.77555441370481
- 482.505201164236
- -44.901386698126956
- -2.157803224168253
- -0.6027513821080559
- 1.1463417678657624
velocity: []
effort: []
---
header:
  stamp:
    sec: 1750749514
    nanosec: 916005835
  frame_id: ''
name: []
position:
- -50.776554413704844
- 482.505201164236
- -44.901386698126956
- -2.157804439474445
- -0.6027502924602731
- 1.146314309439268
velocity: []
effort: []
---
header:
  stamp:
    sec: 1750749514
    nanosec: 919863483
  frame_id: ''
name: []
position:
- -50.77755441370482
- 482.506201164236
- -44.90238669812693
- -2.1577547430148316
- -0.6027778834519149
- 1.1462427030405908
velocity: []
effort: []
---
header:
  stamp:
    sec: 1750749514
    nanosec: 922743377
  frame_id: ''
name: []
position:
- -50.776554413704844
- 482.505201164236
- -44.90238669812693
- -2.157809451856475
- -0.6027759145021991
- 1.146330809146086
velocity: []
effort: []
---
header:
  stamp:
    sec: 1750749514
    nanosec: 924549719
  frame_id: ''
name: []
position:
- -50.77555441370481
- 482.505201164236
- -44.90238669812693
- -2.1577928287935757
- -0.6027724803998566
- 1.146333551573585
velocity: []
effort: []
---
header:
  stamp:
    sec: 1750749514
    nanosec: 926328779
  frame_id: ''
name: []
position:
- -50.774554413704834
- 482.504201164236
- -44.901386698126956
- -2.1577282676941785
- -0.6027558273638225
- 1.1463441900479507
velocity: []
effort: []
---
header:
  stamp:
    sec: 1750749514
    nanosec: 928157227
  frame_id: ''
name: []
position:
- -50.774554413704834
- 482.505201164236
- -44.90038669812709
- -2.1577574620804407
- -0.6027118036217448
- 1.1463302505522712
velocity: []
effort: []
---
header:
  stamp:
    sec: 1750749514
    nanosec: 930015963
  frame_id: ''
name: []
position:
- -50.77555441370481
- 482.505201164236
- -44.901386698126956
- -2.157782414817209
- -0.6027465141487801
- 1.1463443364754364
velocity: []
effort: []
---
header:
  stamp:
    sec: 1750749514
    nanosec: 931809141
  frame_id: ''
name: []
position:
- -50.774554413704834
- 482.504201164236
- -44.901386698126956
- -2.1577323197368194
- -0.6027557093654716
- 1.1463435424437038
velocity: []
effort: []
---
header:
  stamp:
    sec: 1750749514
    nanosec: 933556641
  frame_id: ''
name: []
position:
- -50.77555441370481
- 482.505201164236
- -44.90238669812693
- -2.157772971623027
- -0.6027656797024893
- 1.1463368849853004
velocity: []
effort: []
---
header:
  stamp:
    sec: 1750749514
    nanosec: 935381677
  frame_id: ''
name: []
position:
- -50.774554413704834
- 482.505201164236
- -44.901386698126956
- -2.1578095089151796
- -0.6027316995742642
- 1.1463798264422207
velocity: []
effort: []
---
header:
  stamp:
    sec: 1750749514
    nanosec: 937157734
  frame_id: ''
name: []
position:
- -50.77555441370481
- 482.505201164236
- -44.90238669812693
- -2.1578056153374927
- -0.6027774241096717
- 1.1463577700178482
velocity: []
effort: []
---
header:
  stamp:
    sec: 1750749514
    nanosec: 938970361
  frame_id: ''
name: []
position:
- -50.774554413704834
- 482.504201164236
- -44.901386698126956
- -2.1577782347993546
- -0.6027486589742277
- 1.1463677404695425
velocity: []
effort: []
---
header:
  stamp:
    sec: 1750749514
    nanosec: 940804875
  frame_id: ''
name: []
position:
- -50.77555441370481
- 482.505201164236
- -44.901386698126956
- -2.1577663718365354
- -0.6027370667028809
- 1.1463169697526372
velocity: []
effort: []
---
header:
  stamp:
    sec: 1750749514
    nanosec: 942627604
  frame_id: ''
name: []
position:
- -50.77555441370481
- 482.505201164236
- -44.901386698126956
- -2.1578297175660843
- -0.6027373027092745
- 1.146376523528598
velocity: []
effort: []
---
header:
  stamp:
    sec: 1750749514
    nanosec: 944395632
  frame_id: ''
name: []
position:
- -50.77555441370481
- 482.505201164236
- -44.90038669812709
- -2.157817290449188
- -0.6027279646444986
- 1.1463512669090026
velocity: []
effort: []
---
header:
  stamp:
    sec: 1750749514
    nanosec: 946182257
  frame_id: ''
name: []
position:
- -50.77555441370481
- 482.504201164236
- -44.90238669812693
- -2.1577885563768993
- -0.6027742171570333
- 1.1463633227939498
velocity: []
effort: []
---
header:
  stamp:
    sec: 1750749514
    nanosec: 966480668
  frame_id: ''
name: []
position:
- -50.774554413704834
- 482.505201164236
- -44.89938669812689
- -2.157792474156941
- -0.6026838898995379
- 1.146369764517025
velocity: []
effort: []
---
header:
  stamp:
    sec: 1750749514
    nanosec: 968244854
  frame_id: ''
name: []
position:
- -50.776554413704844
- 482.505201164236
- -44.901386698126956
- -2.1577873241547065
- -0.6027442426320098
- 1.1463152690086262
velocity: []
effort: []
---
header:
  stamp:
    sec: 1750749514
    nanosec: 970468692
  frame_id: ''
name: []
position:
- -50.77555441370481
- 482.505201164236
- -44.90238669812693
- -2.157772365842196
- -0.6027681074951365
- 1.1463368953293391
velocity: []
effort: []
---
header:
  stamp:
    sec: 1750749514
    nanosec: 972351084
  frame_id: ''
name: []
position:
- -50.77555441370481
- 482.504201164236
- -44.90238669812693
- -2.157806237623454
- -0.6027644609732768
- 1.1463771230216957
velocity: []
effort: []
---
header:
  stamp:
    sec: 1750749514
    nanosec: 974155181
  frame_id: ''
name: []
position:
- -50.776554413704844
- 482.506201164236
- -44.90038669812709
- -2.157799586440386
- -0.60272453674709
- 1.146297689448831
velocity: []
effort: []
---
header:
  stamp:
    sec: 1750749514
    nanosec: 975949145
  frame_id: ''
name: []
position:
- -50.77555441370481
- 482.505201164236
- -44.901386698126956
- -2.1577407025683
- -0.6027525570710184
- 1.146283859108845
velocity: []
effort: []
---
header:
  stamp:
    sec: 1750749514
    nanosec: 980076861
  frame_id: ''
name: []
position:
- -50.776554413704844
- 482.506201164236
- -44.901386698126956
- -2.1578394777349903
- -0.6027340570639496
- 1.1463476353964301
velocity: []
effort: []
---
header:
  stamp:
    sec: 1750749514
    nanosec: 991194407
  frame_id: ''
name: []
position:
- -50.77555441370481
- 482.504201164236
- -44.90238669812693
- -2.157778180132066
- -0.6027953220531976
- 1.1463551694572802
velocity: []
effort: []
---
header:
  stamp:
    sec: 1750749515
    nanosec: 3136385
  frame_id: ''
name: []
position:
- -50.774554413704834
- 482.505201164236
- -44.90038669812709
- -2.1577735497165627
- -0.6027222076687194
- 1.1463548575697367
velocity: []
effort: []
---
header:
  stamp:
    sec: 1750749515
    nanosec: 18545661
  frame_id: ''
name: []
position:
- -50.77555441370481
- 482.505201164236
- -44.90038669812709
- -2.1577775724375776
- -0.6027173737490042
- 1.146326839283934
velocity: []
effort: []
---
header:
  stamp:
    sec: 1750749515
    nanosec: 25169831
  frame_id: ''
name: []
position:
- -50.77555441370481
- 482.505201164236
- -44.90038669812709
- -2.1577267649253233
- -0.6027229363330247
- 1.1462915974194128
velocity: []
effort: []
---
header:
  stamp:
    sec: 1750749515
    nanosec: 42569501
  frame_id: ''
name: []
position:
- -50.77555441370481
- 482.504201164236
- -44.90238669812693
- -2.157778199696093
- -0.6027953287534731
- 1.1463551980023463
velocity: []
effort: []
---
header:
  stamp:
    sec: 1750749515
    nanosec: 47567118
  frame_id: ''
name: []
position:
- -50.776554413704844
- 482.505201164236
- -44.901386698126956
- -2.1577885199023727
- -0.6027431462947417
- 1.146313281314878
velocity: []
effort: []
---
header:
  stamp:
    sec: 1750749515
    nanosec: 57299644
  frame_id: ''
name: []
position:
- -50.77555441370481
- 482.505201164236
- -44.901386698126956
- -2.157767076458099
- -0.6027386256631508
- 1.1463185670889857
velocity: []
effort: []
---
header:
  stamp:
    sec: 1750749515
    nanosec: 68573935
  frame_id: ''
name: []
position:
- -50.774554413704834
- 482.504201164236
- -44.90038669812709
- -2.157790638207996
- -0.6027233544696434
- 1.146387700714568
velocity: []
effort: []
---
header:
  stamp:
    sec: 1750749515
    nanosec: 83923421
  frame_id: ''
name: []
position:
- -50.774554413704834
- 482.504201164236
- -44.901386698126956
- -2.1577524110116766
- -0.6027612731019901
- 1.146340260713727
velocity: []
effort: []
---
header:
  stamp:
    sec: 1750749515
    nanosec: 92863169
  frame_id: ''
name: []
position:
- -50.774554413704834
- 482.504201164236
- -44.90238669812693
- -2.157735473857308
- -0.6027993307022199
- 1.1463248656176979
velocity: []
effort: []
---
header:
  stamp:
    sec: 1750749515
    nanosec: 375674694
  frame_id: ''
name: []
position:
- -50.77555441370481
- 482.505201164236
- -44.901386698126956
- -2.1577565801173897
- -0.602759877508069
- 1.146310277056211
velocity: []
effort: []
---
header:
  stamp:
    sec: 1750749515
    nanosec: 377881695
  frame_id: ''
name: []
position:
- -50.77555441370481
- 482.505201164236
- -44.90038669812709
- -2.1577533290328246
- -0.6027335407195475
- 1.1462961097691438
velocity: []
effort: []
---
header:
  stamp:
    sec: 1750749515
    nanosec: 381307423
  frame_id: ''
name: []
position:
- -50.774554413704834
- 482.504201164236
- -44.901386698126956
- -2.157815167753694
- -0.6027601781945265
- 1.1463983378769367
velocity: []
effort: []
---
header:
  stamp:
    sec: 1750749515
    nanosec: 384623812
  frame_id: ''
name: []
position:
- -50.77555441370481
- 482.505201164236
- -44.90038669812709
- -2.157792039271075
- -0.6027270342535818
- 1.1463519397685296
velocity: []
effort: []
---
header:
  stamp:
    sec: 1750749515
    nanosec: 387716567
  frame_id: ''
name: []
position:
- -50.774554413704834
- 482.505201164236
- -44.89938669812689
- -2.1577678460509375
- -0.6026901369853388
- 1.1463385260843082
velocity: []
effort: []
---
header:
  stamp:
    sec: 1750749515
    nanosec: 389309944
  frame_id: ''
name: []
position:
- -50.774554413704834
- 482.505201164236
- -44.901386698126956
- -2.1577627677382605
- -0.6027401616748954
- 1.1463485081581066
velocity: []
effort: []
---
header:
  stamp:
    sec: 1750749515
    nanosec: 390860274
  frame_id: ''
name: []
position:
- -50.774554413704834
- 482.504201164236
- -44.901386698126956
- -2.157778558790982
- -0.6027480170059686
- 1.1463716179108103
velocity: []
effort: []
---
header:
  stamp:
    sec: 1750749515
    nanosec: 392521793
  frame_id: ''
name: []
position:
- -50.77555441370481
- 482.505201164236
- -44.901386698126956
- -2.157752080737211
- -0.6027368778430151
- 1.1463245981314167
velocity: []
effort: []
---
header:
  stamp:
    sec: 1750749515
    nanosec: 394049340
  frame_id: ''
name: []
position:
- -50.776554413704844
- 482.505201164236
- -44.90238669812693
- -2.157795189432842
- -0.60276971243933
- 1.1463065330534115
velocity: []
effort: []
---
header:
  stamp:
    sec: 1750749515
    nanosec: 395573819
  frame_id: ''
name: []
position:
- -50.776554413704844
- 482.505201164236
- -44.90238669812693
- -2.1577768867461957
- -0.6027655147118484
- 1.1463068382071928
velocity: []
effort: []
---
header:
  stamp:
    sec: 1750749515
    nanosec: 397116631
  frame_id: ''
name: []
position:
- -50.774554413704834
- 482.505201164236
- -44.90038669812709
- -2.1578129426876735
- -0.6027294873739116
- 1.1463842403045392
velocity: []
effort: []
---
header:
  stamp:
    sec: 1750749515
    nanosec: 398653932
  frame_id: ''
name: []
position:
- -50.77555441370481
- 482.505201164236
- -44.90038669812709
- -2.1577936705012135
- -0.60272439297649
- 1.1463535008106729
velocity: []
effort: []
---
header:
  stamp:
    sec: 1750749515
    nanosec: 400205107
  frame_id: ''
name: []
position:
- -50.774554413704834
- 482.504201164236
- -44.901386698126956
- -2.1577544844100176
- -0.6027606656023266
- 1.1463399590251537
velocity: []
effort: []
---
header:
  stamp:
    sec: 1750749515
    nanosec: 401757221
  frame_id: ''
name: []
position:
- -50.774554413704834
- 482.504201164236
- -44.90038669812709
- -2.1577424446931994
- -0.6027343303711516
- 1.1463519539763725
velocity: []
effort: []
---
header:
  stamp:
    sec: 1750749515
    nanosec: 403276643
  frame_id: ''
name: []
position:
- -50.77555441370481
- 482.505201164236
- -44.90238669812693
- -2.1577723435330896
- -0.6027682880877769
- 1.1463369017181675
velocity: []
effort: []
---
header:
  stamp:
    sec: 1750749515
    nanosec: 404801668
  frame_id: ''
name: []
position:
- -50.77555441370481
- 482.505201164236
- -44.901386698126956
- -2.1577200609374154
- -0.6027469929006997
- 1.1462868305420295
velocity: []
effort: []
---
header:
  stamp:
    sec: 1750749515
    nanosec: 406294267
  frame_id: ''
name: []
position:
- -50.77555441370481
- 482.504201164236
- -44.90238669812693
- -2.157730228020209
- -0.6027736281497048
- 1.1463081297855593
velocity: []
effort: []
---
header:
  stamp:
    sec: 1750749515
    nanosec: 421566400
  frame_id: ''
name: []
position:
- -50.774554413704834
- 482.505201164236
- -44.90038669812709
- -2.157757252381116
- -0.6027113553328877
- 1.1463301983367018
velocity: []
effort: []
---
header:
  stamp:
    sec: 1750749515
    nanosec: 429463480
  frame_id: ''
name: []
position:
- -50.77555441370481
- 482.505201164236
- -44.901386698126956
- -2.1577662544571847
- -0.6027370265010195
- 1.1463167810373136
velocity: []
effort: []
---
header:
  stamp:
    sec: 1750749515
    nanosec: 437242217
  frame_id: ''
name: []
position:
- -50.774554413704834
- 482.505201164236
- -44.90038669812709
- -2.157726290846324
- -0.6027271033377695
- 1.1463252242628101
velocity: []
effort: []
---
header:
  stamp:
    sec: 1750749515
    nanosec: 448670598
  frame_id: ''
name: []
position:
- -50.774554413704834
- 482.505201164236
- -44.90038669812709
- -2.1578308023869424
- -0.6027209216790462
- 1.1464080116590656
velocity: []
effort: []
---
header:
  stamp:
    sec: 1750749515
    nanosec: 457130956
  frame_id: ''
name: []
position:
- -50.77555441370481
- 482.505201164236
- -44.90238669812693
- -2.1577726366421093
- -0.6027670708413334
- 1.146336899727475
velocity: []
effort: []
---
header:
  stamp:
    sec: 1750749515
    nanosec: 470102001
  frame_id: ''
name: []
position:
- -50.776554413704844
- 482.505201164236
- -44.90238669812693
- -2.1578098990861623
- -0.6027762558944215
- 1.1463307326707102
velocity: []
effort: []
---
header:
  stamp:
    sec: 1750749515
    nanosec: 484812774
  frame_id: ''
name: []
position:
- -50.77555441370481
- 482.505201164236
- -44.901386698126956
- -2.157859525421938
- -0.602742616408129
- 1.1464161393866066
velocity: []
effort: []
---
header:
  stamp:
    sec: 1750749515
    nanosec: 492488479
  frame_id: ''
name: []
position:
- -50.774554413704834
- 482.504201164236
- -44.901386698126956
- -2.1577500190997636
- -0.6027621479765829
- 1.1463405944270164
velocity: []
effort: []
---
header:
  stamp:
    sec: 1750749515
    nanosec: 503955157
  frame_id: ''
name: []
position:
- -50.774554413704834
- 482.505201164236
- -44.90038669812709
- -2.157773801999637
- -0.6027251175626837
- 1.1463532091485769
velocity: []
effort: []
---
header:
  stamp:
    sec: 1750749515
    nanosec: 514659031
  frame_id: ''
name: []
position:
- -50.77555441370481
- 482.505201164236
- -44.901386698126956
- -2.1577323808660527
- -0.602754224427886
- 1.1463113457051013
velocity: []
effort: []
---
header:
  stamp:
    sec: 1750749515
    nanosec: 525912172
  frame_id: ''
name: []
position:
- -50.774554413704834
- 482.505201164236
- -44.90038669812709
- -2.1577466360368582
- -0.6027327542018333
- 1.146321841675949
velocity: []
effort: []
---
header:
  stamp:
    sec: 1750749515
    nanosec: 537049050
  frame_id: ''
name: []
position:
- -50.77555441370481
- 482.505201164236
- -44.901386698126956
- -2.15781564785601
- -0.6027582720638456
- 1.146365658221995
velocity: []
effort: []
---
header:
  stamp:
    sec: 1750749515
    nanosec: 849271258
  frame_id: ''
name: []
position:
- -50.77555441370481
- 482.505201164236
- -44.901386698126956
- -2.1577403476797077
- -0.6027526237530505
- 1.1462833278835114
velocity: []
effort: []
---
header:
  stamp:
    sec: 1750749515
    nanosec: 851620645
  frame_id: ''
name: []
position:
- -50.77555441370481
- 482.505201164236
- -44.901386698126956
- -2.157767845261457
- -0.602739830138819
- 1.1463201278379325
velocity: []
effort: []
---
header:
  stamp:
    sec: 1750749515
    nanosec: 855555393
  frame_id: ''
name: []
position:
- -50.774554413704834
- 482.505201164236
- -44.90038669812709
- -2.1577402254991203
- -0.6027100410645687
- 1.146333813601896
velocity: []
effort: []
---
header:
  stamp:
    sec: 1750749515
    nanosec: 859530157
  frame_id: ''
name: []
position:
- -50.774554413704834
- 482.505201164236
- -44.90038669812709
- -2.1577366558681454
- -0.6027054302057583
- 1.1463335594128425
velocity: []
effort: []
---
header:
  stamp:
    sec: 1750749515
    nanosec: 863625338
  frame_id: ''
name: []
position:
- -50.77555441370481
- 482.505201164236
- -44.90238669812693
- -2.157748553295865
- -0.6027789634690907
- 1.146304880046694
velocity: []
effort: []
---
header:
  stamp:
    sec: 1750749515
    nanosec: 866572168
  frame_id: ''
name: []
position:
- -50.774554413704834
- 482.504201164236
- -44.901386698126956
- -2.1577315708306957
- -0.6027558293249033
- 1.146343662083744
velocity: []
effort: []
---
header:
  stamp:
    sec: 1750749515
    nanosec: 868410340
  frame_id: ''
name: []
position:
- -50.77555441370481
- 482.505201164236
- -44.901386698126956
- -2.1577546659763875
- -0.602760351321077
- 1.1463075782206131
velocity: []
effort: []
---
header:
  stamp:
    sec: 1750749515
    nanosec: 870276191
  frame_id: ''
name: []
position:
- -50.77555441370481
- 482.505201164236
- -44.89938669812689
- -2.157788277392215
- -0.6026952523023814
- 1.1463351520448197
velocity: []
effort: []
---
header:
  stamp:
    sec: 1750749515
    nanosec: 872157238
  frame_id: ''
name: []
position:
- -50.77555441370481
- 482.505201164236
- -44.901386698126956
- -2.157782493070906
- -0.6027465409494523
- 1.14634446810448
velocity: []
effort: []
---
header:
  stamp:
    sec: 1750749515
    nanosec: 873974867
  frame_id: ''
name: []
position:
- -50.774554413704834
- 482.504201164236
- -44.90238669812693
- -2.15772099279606
- -0.6027772414240226
- 1.1463353441494206
velocity: []
effort: []
---
header:
  stamp:
    sec: 1750749515
    nanosec: 877679356
  frame_id: ''
name: []
position:
- -50.774554413704834
- 482.504201164236
- -44.90238669812693
- -2.1577689535319777
- -0.6027675035198881
- 1.1463643743529972
velocity: []
effort: []
---
header:
  stamp:
    sec: 1750749515
    nanosec: 881020159
  frame_id: ''
name: []
position:
- -50.77555441370481
- 482.506201164236
- -44.90038669812709
- -2.1578341798621254
- -0.6026996789114085
- 1.1463627705844832
velocity: []
effort: []
---
header:
  stamp:
    sec: 1750749515
    nanosec: 884295854
  frame_id: ''
name: []
position:
- -50.774554413704834
- 482.505201164236
- -44.901386698126956
- -2.157763952859038
- -0.602741132273864
- 1.1463476314030665
velocity: []
effort: []
---
header:
  stamp:
    sec: 1750749515
    nanosec: 888818637
  frame_id: ''
name: []
position:
- -50.77555441370481
- 482.505201164236
- -44.901386698126956
- -2.1577985965723183
- -0.6027518678337916
- 1.1463409421087059
velocity: []
effort: []
